ride_id,rideable_type,started_at,ended_at,start_station_name,start_station_id,end_station_name,end_station_id,start_lat,start_lng,end_lat,end_lng,member_casual
3D3F8CCD94ED43A2,classic_bike,2025-10-19 13:22:53.484,2025-10-19 13:34:52.664,Central Park W & W 97 St,7538.18,5 Ave & E 72 St,7100.07,40.79249519495111,-73.96417066463071,40.77282817,-73.96685276,member
0AEDF4E35CBFC7F3,classic_bike,2025-10-15 08:05:49.584,2025-10-15 08:11:49.777,6 Ave & 9 St,3803.09,Garfield Pl & 8 Ave,3978.13,40.668127,-73.98377641,40.6711978,-73.97484126,member
98E125EC41D23BDF,classic_bike,2025-10-18 15:46:13.281,2025-10-18 16:03:40.898,E 10 St & Ave A,5659.05,St James Pl & Pearl St,5167.06,40.72740794,-73.98142006,40.71117416,-74.00016545,casual
0103921BB52C8FAA,electric_bike,2025-10-27 17:36:38.709,2025-10-27 17:45:56.947,E 51 St & Lexington Ave,6659.01,6 Ave & W 34 St,6364.10,40.75714758,-73.97207836,40.74964,-73.98805,member
967D18C23A97350F,electric_bike,2025-10-22 14:17:58.649,2025-10-22 14:19:22.771,Kent St & McGuinness Blvd,5785.10,India St & Manhattan Ave,5826.02,40.73124,-73.95161,40.73232194,-73.9550858,member
0A5B4CE1AE8B6FC3,classic_bike,2025-10-07 15:43:36.203,2025-10-07 15:50:30.388,E 47 St & 2 Ave,6498.10,E 33 St & 1 Ave,6197.08,40.75323098,-73.97032517,40.74322681432173,-73.97449783980846,member
B66A42A9F54428D7,electric_bike,2025-10-10 17:39:37.887,2025-10-10 17:44:07.555,E 7 St & Ave B,5584.05,Cooper Square & Astor Pl,5712.03,40.7251285241158,-73.98131668567657,40.72951496224949,-73.99075269699097,member
45889E049476DECB,electric_bike,2025-10-19 12:00:24.557,2025-10-19 12:13:47.734,W 16 St & The High Line,6233.05,E 11 St & 1 Ave,5746.14,40.74334935,-74.00681753,40.72953837,-73.98426726,member
F0A98D791634C061,electric_bike,2025-10-02 09:24:04.777,2025-10-02 09:32:14.094,71 St & 32 Ave,6612.09,,,40.75675,-73.89595,,,member
E419D06D3182BD05,electric_bike,2025-10-16 11:35:32.409,2025-10-16 11:39:52.910,E 5 St & Cooper Sq,5712.12,E 16 St & Irving Pl,5938.11,40.72769,-73.990993,40.735367055605394,-73.98797392845154,member
248490CCB484C2EE,electric_bike,2025-10-08 15:00:49.346,2025-10-08 15:25:06.078,W 44 St & 11 Ave,6756.05,Broadway & W 138 St,7942.07,40.762009,-73.996975,40.82182,-73.95353,member
14D1BEEB078D6EA0,electric_bike,2025-10-09 21:03:32.104,2025-10-09 21:15:09.877,W 16 St & The High Line,6233.05,11 Ave & W 41 St,6726.01,40.74334935,-74.00681753,40.76030096,-73.99884222,member
C95A653ECA177191,electric_bike,2025-10-09 16:08:29.658,2025-10-09 16:27:10.509,W 54 St & 9 Ave,6920.05,2 Ave & E 29 St,6122.09,40.76604,-73.98737,40.741723510974715,-73.97809267044067,casual
5E2126AFED8787BB,electric_bike,2025-10-03 00:17:23.112,2025-10-03 00:36:20.846,MacDonough St & Marcy Ave,4246.02,Willoughby Ave & Myrtle Ave,4759.02,40.68078,-73.94613,40.69757,-73.93098,casual
74E4256BAB425A33,electric_bike,2025-10-03 20:06:32.747,2025-10-03 20:12:27.360,Broadway & Berry St,5164.05,Union Ave & Jackson St,5300.06,40.71036129922581,-73.96530389785767,40.7160751,-73.952029,member
35325076565194EE,classic_bike,2025-10-05 00:22:08.377,2025-10-05 00:31:26.532,W 47 St & 6 Ave,6667.12,W 42 St & 8 Ave,6602.05,40.758154,-73.981957,40.7575699,-73.99098507,casual
C7A1E94903605696,electric_bike,2025-10-05 01:26:07.291,2025-10-05 01:30:06.649,E 32 St & Park Ave,6280.12,E 39 St & Lexington Ave,6389.09,40.7457121,-73.98194829,40.749498546025194,-73.97729203113158,member
CCA115F0DA690D4D,electric_bike,2025-10-24 20:16:06.933,2025-10-24 20:18:11.250,Amsterdam Ave & W 73 St,7260.09,Amsterdam Ave & W 79 St,7311.02,40.77966809007312,-73.98093044757842,40.7829391,-73.9786517,member
D51AF5F45373AD32,electric_bike,2025-10-01 22:02:47.851,2025-10-01 22:14:39.396,Nassau Ave & Newell St,5623.03,S 2 St & Kent Ave,5276.04,40.724812564400175,-73.94752621650696,40.714731,-73.966612,member
7E90482D60A7482E,electric_bike,2025-10-22 18:01:25.212,2025-10-22 18:04:22.879,W 11 St & 6 Ave,5914.03,W 18 St & 6 Ave,6064.08,40.73532427,-73.99800419,40.73971301,-73.99456405,member
D38C1482F0B50512,electric_bike,2025-10-03 17:40:02.438,2025-10-03 17:46:54.180,Division Ave & Hooper St,5045.05,McKibbin St & Bogart St,5059.02,40.70684203101325,-73.9544353965357,40.706237,-73.933871,member
8F244FD1ADDCBAB4,electric_bike,2025-10-28 18:18:17.079,2025-10-28 18:27:33.450,Great Jones St,5636.11,W 31 St & 7 Ave,6331.01,40.72743423,-73.99379025,40.749156,-73.9916,member
40752833F98C113A,electric_bike,2025-10-26 14:07:11.714,2025-10-26 14:53:34.986,Columbus Ave & W 103 St,7595.17,Frederick Douglass Blvd & W 115 St,7658.13,40.7969347,-73.9643412291,40.8038654,-73.9559308,member
25D54A328E4B839D,electric_bike,2025-10-24 14:39:37.998,2025-10-24 14:42:40.777,Smith St & 9 St,4077.04,Henry St & Bay St,3972.08,40.6746957,-73.99785768,40.6725058,-74.00494695,member
37F40DCBC0872052,electric_bike,2025-10-12 08:27:41.080,2025-10-12 08:39:09.533,Division Ave & Hooper St,5045.05,Bedford Ave & Nassau Ave,5550.05,40.70684203101325,-73.9544353965357,40.72311651,-73.95212324,member
F5BCF0185A7412E4,classic_bike,2025-10-06 18:47:05.928,2025-10-06 18:57:08.209,45 Rd & 11 St,6319.01,Center Blvd & 51 Ave,6179.07,40.74708586,-73.94977234,40.743366080270214,-73.95960688591003,member
066ADBCD1212634B,electric_bike,2025-10-01 00:36:20.675,2025-10-01 00:44:05.764,Clinton Ave & Myrtle Ave,4651.02,N Portland Ave & Flushing Ave,4771.07,40.693261,-73.968896,40.697926,-73.97663,member
12532CBE2372D902,electric_bike,2025-10-15 07:31:42.842,2025-10-15 07:44:09.726,Stagg St & Union Ave,5117.05,E 3 St & 1 Ave,5553.03,40.70877084,-73.95095259,40.72467721,-73.98783413,member
F9B4F8DE4DD00CAD,classic_bike,2025-10-09 19:34:11.321,2025-10-09 19:48:27.991,Watts St & Greenwich St,5578.02,E 4 St & 2 Ave,5593.04,40.72405549,-74.00965965,40.7262807,-73.98978041,member
85ABA9EBBAF4EE36,classic_bike,2025-10-10 07:54:17.800,2025-10-10 07:56:48.941,W 50 St & 10 Ave,6890.06,8 Ave & W 49 St,6747.07,40.764734200065185,-73.99194359779358,40.76171227910671,-73.98655101656914,member
A5FF38E1417A9D03,electric_bike,2025-10-16 15:42:07.139,2025-10-16 15:45:05.217,E 84 St & 1 Ave,7180.02,E 89 St & York Ave,7204.08,40.77565541,-73.95068615,40.7779453,-73.946041,member
1F131FBE9FA55500,electric_bike,2025-10-11 00:33:27.641,2025-10-11 01:11:13.336,E 7 St & Ave B,5584.05,Albany Ave & Fulton St,4237.02,40.7251285241158,-73.98131668567657,40.6800105,-73.938475,casual
1E33D2996A62FCD8,electric_bike,2025-10-16 18:14:06.871,2025-10-16 18:20:59.625,St James Pl & Oliver St,5238.05,Lafayette St & Jersey St,5561.06,40.71307916,-73.99851193,40.72456089,-73.99565293,member
5D662DD5A7FEE7FD,electric_bike,2025-10-28 21:09:13.093,2025-10-28 21:17:57.255,Cambridge Pl & Gates Ave,4377.04,Stuyvesant Ave & Gates Ave,4458.06,40.68488,-73.96304,40.68834,-73.93306,casual
F1D0D47AA4063707,classic_bike,2025-10-26 12:50:30.933,2025-10-26 14:25:26.927,Morton St & Greenwich St,5772.05,Morton St & Greenwich St,5772.05,40.73115,-74.00887,40.73115,-74.00887,casual
B674526A647BB235,electric_bike,2025-10-07 20:37:39.458,2025-10-07 20:48:42.154,Lorimer St & Calyer St,5709.04,Leonard St & Nassau Ave,5550.09,40.72795,-73.95414,40.7239567849954,-73.94984364509583,member
22C203B274EBB431,electric_bike,2025-10-25 11:34:42.913,2025-10-25 11:45:54.319,Schermerhorn St & Court St,4565.07,Van Brunt St & Wolcott St,4095.03,40.6910363748993,-73.99201065301895,40.6773429,-74.01275056,member
2DF3F6126FDE3CA7,classic_bike,2025-10-27 08:16:20.795,2025-10-27 08:29:23.292,E 10 St & Ave A,5659.05,W Broadway & Watts St,5569.07,40.72740794,-73.98142006,40.72323,-74.00314,member
684A12808579707E,classic_bike,2025-10-08 20:37:36.485,2025-10-08 20:54:27.784,Washington St & Gansevoort St,6039.06,Cleveland Pl & Spring St,5492.05,40.739323,-74.008119,40.722103786686034,-73.99724900722504,member
A6F42C11D5561AE5,electric_bike,2025-10-09 12:30:13.458,2025-10-09 12:47:45.096,N 12 St & Bedford Ave,5450.04,Bushwick Ave & Dekalb Ave,4680.05,40.72079821,-73.95484712,40.69502,-73.92825,member
CF5234793FF77BC2,electric_bike,2025-10-02 11:09:15.279,2025-10-02 11:24:16.716,Mercer St & Spring St,5532.01,Broadway & W 29 St,6289.06,40.72362738,-73.99949601,40.7462009,-73.98855723,member
CC4C00C86EB7D3F0,electric_bike,2025-10-01 15:09:29.660,2025-10-01 16:10:40.260,5 Ave & E 63 St,6904.06,Pier 61 at Chelsea Piers,6233.04,40.766368,-73.971518,40.746872,-74.00821,member
8B0874D98B900D77,classic_bike,2025-10-15 08:07:45.245,2025-10-15 08:10:12.583,9 Ave & W 39 St,6644.08,9 Ave & W 33 St,6492.08,40.756403523272496,-73.99410143494606,40.752568,-73.996765,member
79C3C6BA5188D63E,electric_bike,2025-10-31 09:03:09.664,2025-10-31 09:14:02.838,Stanton St & Chrystie St,5523.02,Allen St & Stanton St,5484.09,40.72229346,-73.99147535,40.722055,-73.989111,member
B72B8DF5A40394EE,classic_bike,2025-10-19 15:29:32.648,2025-10-19 15:38:46.098,DeKalb Ave & Vanderbilt Ave,4461.04,St Marks Pl & 4 Ave,4249.01,40.68940747,-73.96885458,40.68197,-73.98034,member
77D23977E019D6D0,electric_bike,2025-10-01 20:18:43.478,2025-10-01 20:29:11.700,E 14 St & 1 Ave,5779.10,E 47 St & 2 Ave,6498.10,40.73139303364151,-73.98286700248718,40.75323098,-73.97032517,member
8C2E3CBD434047C2,electric_bike,2025-10-08 20:47:43.501,2025-10-08 20:53:30.654,Devoe St & Lorimer St,5259.06,N 9 St & Wythe Ave,5489.06,40.71335226222875,-73.9491033554077,40.72054,-73.959,member
12369336D6E98908,electric_bike,2025-10-07 15:41:49.518,2025-10-07 15:48:51.780,E 128 St & Madison Ave,7735.23,St Nicholas Ave & Manhattan Ave,7723.01,40.80756,-73.939182,40.809725,-73.953149,member
7F17E6E539F3AE35,electric_bike,2025-10-24 20:25:47.863,2025-10-24 20:39:12.876,MacDougal St & Prince St,5687.04,Cooper Square & Astor Pl,5712.03,40.72710258,-74.00297088,40.72951496224949,-73.99075269699097,member
A2915BB86F5FF9AA,classic_bike,2025-10-16 01:23:43.076,2025-10-16 01:26:00.714,Clinton St & Grand St,5303.06,Rivington St & Ridge St,5406.02,40.71559509,-73.9870295,40.71850211,-73.98329859,member
B339D1DA2E0C03C5,electric_bike,2025-10-26 15:13:48.206,2025-10-26 15:27:12.975,E 72 St & Park Ave,6998.08,West End Ave & W 94 St,7524.09,40.77118287540658,-73.96409422159195,40.7941654,-73.974124,member
5E96D8FC48984B8B,classic_bike,2025-10-25 08:57:58.022,2025-10-25 09:23:54.345,Degraw St & 3 Ave,4217.06,3 St & 3 Ave,4028.03,40.67977,-73.9847,40.6750705,-73.98775226,member
D8CDEFD13931439B,electric_bike,2025-10-14 05:32:43.297,2025-10-14 05:43:14.899,E 6 St & Ave B,5584.04,S 4 St & Roebling St,5195.06,40.72453734,-73.98185424,40.710709,-73.959724,member
F50D05A745040100,classic_bike,2025-10-16 22:04:15.084,2025-10-16 22:05:27.660,Cliff St & Fulton St,5065.14,Water St & Fletcher St,5024.10,40.70838,-74.00495,40.706410755236135,-74.00559738278389,member
E23AE066C7AA8C47,classic_bike,2025-10-01 09:27:01.909,2025-10-01 09:32:06.052,Norfolk St & Broome St,5374.01,Grand St & Elizabeth St,5382.06,40.7172274,-73.98802084,40.718822,-73.99596,member
5045EFFFB169D73E,electric_bike,2025-10-12 17:37:05.937,2025-10-12 18:01:55.901,E 74 St & 1 Ave,6953.08,W 146 St & Broadway,8018.09,40.7689738,-73.95482273,40.826969,-73.949738,casual
8475D1F3A6D93C3B,electric_bike,2025-10-06 13:11:16.459,2025-10-06 13:13:42.241,Broadway & E 19 St,5980.11,W 13 St & 5 Ave,5947.04,40.73829,-73.99006,40.735445,-73.99431,member
8021B81C28ABB30B,classic_bike,2025-10-19 10:19:10.173,2025-10-19 10:28:43.824,Broadway & Kent Ave,5134.09,Carlton Ave & Flushing Ave,4732.08,40.710888,-73.968329,40.697787,-73.973736,member
A734A771F673C7BF,electric_bike,2025-10-14 17:31:01.564,2025-10-14 17:35:10.598,W 116 St & Broadway,7713.11,Riverside Dr & W 104 St,7623.13,40.8082,-73.9641,40.8013434,-73.9711457439,member
BDDD6950709B3BB5,electric_bike,2025-10-09 19:08:09.497,2025-10-09 19:17:55.787,Union St & Bedford Ave,3879.04,5 Ave & 3 St,3987.06,40.6691783,-73.9554162,40.6728155,-73.98352355,member
C244F68ED1DC7010,electric_bike,2025-10-23 23:08:30.590,2025-10-23 23:11:45.850,St Marks Pl & 1 Ave,5626.13,E 9 St & Ave C,5616.01,40.72779126,-73.98564945,40.72521311,-73.97768752,member
4BFA3395F5DE285E,electric_bike,2025-10-14 17:49:43.526,2025-10-14 17:55:11.266,Amsterdam Ave & W 79 St,7311.02,W 87 St & West End Ave,7484.05,40.7829391,-73.9786517,40.789622,-73.97757,member
0AAA6CE4DA5F11BD,electric_bike,2025-10-07 13:41:01.707,2025-10-07 13:45:46.766,Broadway & E 14 St,5905.12,E 11 St & 1 Ave,5746.14,40.73454567,-73.99074142,40.72953837,-73.98426726,member
42EE1BDC948C8330,classic_bike,2025-10-06 18:15:50.308,2025-10-06 18:22:25.437,46 St & 30 Rd,6703.06,31 Ave & 34 St,6819.15,40.76072,-73.910989,40.763154,-73.920827,member
0942301E95E00D6C,electric_bike,2025-10-17 15:45:39.297,2025-10-17 16:11:14.151,E 7 St & Ave A,5626.07,President St & Henry St,4307.13,40.72621788,-73.98379855,40.6828003,-73.99990419,member
8C32346C82944D84,electric_bike,2025-10-01 17:10:59.593,2025-10-01 17:14:53.779,E 5 St & Cooper Sq,5712.12,W 13 St & 5 Ave,5947.04,40.72769,-73.990993,40.735445,-73.99431,casual
FCC3C51BAB09890B,electric_bike,2025-10-04 18:18:12.300,2025-10-04 18:47:20.610,Central Park W & W 103 St,7577.27,W 34 St & 11 Ave,6578.01,40.79558954105342,-73.96188408136368,40.75594159,-74.0021163,casual
4332186F7D7764DF,electric_bike,2025-10-24 17:15:31.450,2025-10-24 17:20:51.976,W 51 St & 6 Ave,6740.10,W 40 St & 7 Ave,6560.14,40.7606597,-73.98042047,40.754818,-73.988154,member
2F9DA4DDADECD533,electric_bike,2025-10-19 00:24:10.594,2025-10-19 00:47:13.519,DeKalb Ave & Vanderbilt Ave,4461.04,Greenpoint Ave & Manhattan Ave,5785.05,40.68940747,-73.96885458,40.73026,-73.95394,member
14A96B0A58C54E6D,electric_bike,2025-10-15 18:21:45.157,2025-10-15 18:29:52.207,Perry St & Bleecker St,5922.07,Mercer St & Spring St,5532.01,40.73535398,-74.00483091,40.72362738,-73.99949601,member
9F4DD298907E0198,electric_bike,2025-10-07 12:54:43.265,2025-10-07 13:00:34.652,Broadway & E 14 St,5905.12,E 4 St & 2 Ave,5593.04,40.73454567,-73.99074142,40.7262807,-73.98978041,member
D075C895D3D3FCA8,electric_bike,2025-10-15 14:21:29.993,2025-10-15 14:55:39.694,Steinway St & 23 Ave,7009.02,E 11 St & 3 Ave,5788.16,40.7713937,-73.9077436,40.73127,-73.98849,member
A01DB9AC5E248DA3,electric_bike,2025-10-07 00:02:36.256,2025-10-07 00:11:35.192,Webb Ave & W 190 St,8624.01,Grand Concourse & E 184 St,8531.05,40.8660052,-73.904254892,40.85941,-73.8985,member
8292CD088D32FC28,electric_bike,2025-10-15 19:02:25.843,2025-10-15 19:07:26.439,Bedford Ave & Nassau Ave,5550.05,Calyer St & Jewel St,5743.02,40.72311651,-73.95212324,40.72984,-73.94839,member
9678E51C21B2ABB2,classic_bike,2025-10-20 09:57:09.708,2025-10-20 10:03:51.553,2 Ave & E 31 St,6197.11,E 14 St & 1 Ave,5779.10,40.74299,-73.97711,40.73139303364151,-73.98286700248718,member
C6DBD325DDB1F775,electric_bike,2025-10-29 13:06:46.275,2025-10-29 13:51:54.288,Liberty St & Broadway,5105.01,Madison Ave & E 82 St,7188.13,40.70905623,-74.01043382,40.7781314,-73.96069399,member
11CFA273095E0E12,classic_bike,2025-10-09 10:44:37.774,2025-10-09 10:56:04.597,West End Ave & W 60 St,7059.08,E 61 St & Madison Ave,6801.16,40.77237,-73.99005,40.764752828526326,-73.97037800510203,member
519BD835A6D6CC34,electric_bike,2025-10-18 11:24:33.123,2025-10-18 12:22:23.850,W 52 St & 5 Ave,6700.01,Bus Slip & State St,4889.06,40.75992262,-73.97648516,40.701907,-74.013942,casual
B6FA3437310294E3,classic_bike,2025-10-29 21:36:40.564,2025-10-29 21:47:19.875,3 Ave & Carroll St,4143.04,Schermerhorn St & Hoyt St,4479.1,40.677027,-73.9865,40.6886263,-73.9851911,member
A66BC47E55325BCD,electric_bike,2025-10-01 14:18:40.997,2025-10-01 14:21:57.360,W 45 St & 8 Ave,6676.02,W 45 St & 8 Ave,6676.02,40.75929124,-73.98859651,40.75929124,-73.98859651,casual
C97FA841E549F2C2,electric_bike,2025-10-07 13:05:25.876,2025-10-07 13:11:43.366,E 14 St & 1 Ave,5779.10,W 15 St & 6 Ave,5989.02,40.73139303364151,-73.98286700248718,40.738046142482766,-73.99642959237099,member
AA82601445DE1A77,electric_bike,2025-10-28 22:09:11.305,2025-10-28 22:25:12.407,Pike St & E Broadway,5270.05,Meserole Ave & Manhattan Ave,5666.04,40.71406667,-73.99293911,40.72708584,-73.95299117,member
9C44DE7D3CB70C62,classic_bike,2025-10-09 05:09:13.059,2025-10-09 05:18:52.349,Columbus Ave & W 72 St,7175.05,E 76 St & Park Ave,7128.08,40.7770575,-73.97898475,40.773763,-73.96222088,member
5E4AC073C4F63EB7,electric_bike,2025-10-15 15:25:38.278,2025-10-15 15:31:29.120,Amsterdam Ave & W 79 St,7311.02,Columbus Ave & W 95 St,7520.07,40.7829391,-73.9786517,40.7919557,-73.968087,member
D780BE37313CC7D5,electric_bike,2025-10-18 22:34:56.499,2025-10-18 23:04:13.984,Prospect Pl & 6 Ave,4166.08,Union Ave & N 12 St,5411.07,40.6793307,-73.97519523,40.71924,-73.95242,member
699A78C842D7C27B,classic_bike,2025-10-09 12:13:29.695,2025-10-09 12:29:24.839,Graham Ave & Herbert St,5403.05,Irving Ave & DeKalb Ave,4898.02,40.71929301,-73.94500379,40.7027,-73.92095,member
E008F7E036A5222E,classic_bike,2025-10-10 00:39:32.637,2025-10-10 00:44:57.209,E 48 St & 3 Ave,6541.03,E 63 St & 3 Ave,6830.02,40.7546011026,-73.971878855,40.763954,-73.9646,member
E090BBF753EDD488,electric_bike,2025-10-30 16:26:22.694,2025-10-30 16:41:04.440,McKibbin St & Bogart St,5059.02,Metropolitan Ave & 65 Ln,5160.01,40.706237,-73.933871,40.71225,-73.89111,member
E520CAC0C5FDC841,classic_bike,2025-10-20 22:08:43.630,2025-10-20 22:21:34.012,Columbus Ave & W 95 St,7520.07,1 Ave & E 110 St,7522.02,40.7919557,-73.968087,40.7923272,-73.9383,member
7E0B161D1176E1AB,electric_bike,2025-10-16 22:19:36.241,2025-10-16 22:48:32.931,5 Ave & E 72 St,7100.07,31 Ave & Steinway St,6782.01,40.77282817,-73.96685276,40.7611488,-73.9170071,casual
815AFDCD2001EC62,classic_bike,2025-10-25 09:18:23.684,2025-10-25 09:23:00.717,Rivington St & Chrystie St,5453.01,Pitt St & Stanton St,5406.04,40.72110063,-73.9919254,40.71926081,-73.98178024,member
EC72BB1093B94094,electric_bike,2025-10-14 05:31:16.523,2025-10-14 05:51:19.678,W 51 St & Rockefeller Plaza,6700.14,Adam Clayton Powell Blvd & W 138 St,7855.03,40.75973805251143,-73.97811613976955,40.81695971032464,-73.9422959089279,member
6F01EA17B97CAEA7,electric_bike,2025-10-16 13:01:45.915,2025-10-16 13:10:58.147,E 48 St & 5 Ave,6626.01,Madison Ave & E 26 St,6131.12,40.75724567911726,-73.97805914282799,40.742684734875695,-73.98671329021454,member
6E41F9687E354137,electric_bike,2025-10-20 19:46:14.522,2025-10-20 20:07:05.273,S 3 St & Bedford Ave,5235.05,60 Pl & 67 Ave,4985.09,40.71260486,-73.96264403,40.70497,-73.89965,casual
FE5C1D0E01B7A600,electric_bike,2025-10-24 19:01:05.233,2025-10-24 19:10:50.125,Broadway & E 14 St,5905.12,Centre St & Worth St,5279.03,40.73454567,-73.99074142,40.71494807,-74.00234482,member
1D7140BC8AA27631,electric_bike,2025-10-16 07:44:00.638,2025-10-16 07:50:50.079,Ave D & E 3 St,5436.09,4 Ave & E 12 St,5788.15,40.72082834,-73.97793172,40.732647,-73.99011,member
58837489038C74C9,electric_bike,2025-10-24 21:44:47.717,2025-10-24 22:02:33.133,Calyer St & West St,5676.04,Canal St & Rutgers St,5303.08,40.72693,-73.95863,40.71427487,-73.98990025,casual
809055BBCCCE3B91,electric_bike,2025-10-16 18:19:17.462,2025-10-16 18:31:06.356,Ave C & E 16 St,5769.06,Grand St & Samuel Dickstein Plaza,5335.07,40.72984830346529,-73.97455215454102,40.71511871996496,-73.98417055606842,member
D3179E7F3AC3EEB9,electric_bike,2025-10-03 16:23:02.304,2025-10-03 16:28:32.446,Clinton St & Joralemon St,4605.04,President St & Henry St,4307.13,40.69239502,-73.99337909,40.6828003,-73.99990419,casual
7BEBF00020C30A38,electric_bike,2025-10-04 21:07:13.632,2025-10-04 21:15:48.139,N 6 St & Bedford Ave,5379.10,Kent Ave & Grand St,5388.01,40.71745169,-73.95850939,40.716425,-73.96594,casual
4CE2A0E326E88336,classic_bike,2025-10-27 20:35:22.745,2025-10-27 20:45:38.507,Leonard St & Boerum St,5036.06,Scholes St & Manhattan Ave,5108.01,40.70583339,-73.94644578,40.70870368,-73.9448625,member
C517D4B3A55A91B8,electric_bike,2025-10-27 19:24:56.591,2025-10-27 19:33:19.946,Catherine St & Monroe St,5128.04,St Marks Pl & 1 Ave,5626.13,40.71117444,-73.99682619,40.72779126,-73.98564945,member
ED45D20A72563A64,electric_bike,2025-10-18 18:28:21.207,2025-10-18 18:33:08.278,Plaza St West & Flatbush Ave,4010.13,Hanson Pl & Ashland Pl,4395.07,40.6750207,-73.97111473,40.68506807308177,-73.97790759801863,casual
56811B156C7D20C7,electric_bike,2025-10-01 16:53:31.831,2025-10-01 16:54:43.355,Sterling Pl & Classon Ave,4033.18,Sterling Pl & Franklin Ave,4033.16,40.6739411,-73.96026,40.67324785,-73.95689517,member
5380E4093E5F40E3,electric_bike,2025-10-19 11:19:03.502,2025-10-19 11:25:39.943,Park Ave & E 42 St,6432.09,W 42 St & Dyer Ave,6644.07,40.751873,-73.977706,40.75898481399634,-73.99379968643188,casual
0BE3B37868BC1B27,electric_bike,2025-10-31 02:38:18.164,2025-10-31 02:41:47.032,Summerfield St & Cypress Ave,4727.06,61 St & 60 Ln,4830.02,40.69662,-73.90056,40.70055,-73.8943,member
016FB05FC66963A5,electric_bike,2025-10-27 10:12:32.757,2025-10-27 10:24:55.123,Columbus Ave & W 59 St,6986.07,W 87 St & West End Ave,7484.05,40.76931,-73.98464,40.789622,-73.97757,member
8386AE0C95BA8C32,classic_bike,2025-10-11 08:05:30.145,2025-10-11 08:14:04.314,N 12 St & Bedford Ave,5450.04,S 2 St & Kent Ave,5276.04,40.72079821,-73.95484712,40.714731,-73.966612,casual
11ADBE6CCD08BA07,electric_bike,2025-10-14 20:18:59.242,2025-10-14 20:23:19.135,Clinton St & Grand St,5303.06,Delancey St & Eldridge St,5414.07,40.71559509,-73.9870295,40.719383,-73.991479,member
DDD3CF2FD99663EE,electric_bike,2025-10-04 11:34:28.438,2025-10-04 11:40:28.589,E 43 St & Madison Ave,6551.11,8 Ave & W 31 St,6450.05,40.75354681867074,-73.97896572947502,40.7505853470215,-73.9946848154068,casual
E6946849D6015D27,electric_bike,2025-10-21 18:18:23.616,2025-10-21 18:29:52.557,Plaza St West & Flatbush Ave,4010.13,7 Ave & 20 St,3588.01,40.6750207,-73.97111473,40.659053,-73.98854,member
4E904E668ED74597,electric_bike,2025-10-24 13:43:16.199,2025-10-24 13:52:15.482,Orchard St & Grand St,5343.11,S 4 St & Wythe Ave,5204.05,40.717318403855785,-73.99067759513855,40.71285887,-73.96590294,member
0C0EF49187CDADF3,electric_bike,2025-10-31 07:27:06.266,2025-10-31 07:34:43.093,Amsterdam Ave & W 79 St,7311.02,West End Ave & W 60 St,7059.08,40.7829391,-73.9786517,40.77237,-73.99005,member
D93C08E0AA6E3800,electric_bike,2025-10-18 17:53:20.342,2025-10-18 17:59:47.661,Division St & Bowery,5311.08,Church St & Worth St,5359.13,40.71419,-73.99673,40.71688538495366,-74.00650128722191,member
97EDC8D7A06B32D0,electric_bike,2025-10-08 12:44:46.542,2025-10-08 12:51:09.823,W 20 St & 5 Ave,6098.02,W 12 St & Hudson St,5997.10,40.73972989238724,-73.99103969335556,40.73752993301071,-74.00558933615685,casual
72147F2B2A0DF08A,electric_bike,2025-10-05 12:39:36.066,2025-10-05 13:38:20.680,Pier 61 at Chelsea Piers,6233.04,Warren St & W Broadway,5288.09,40.746872,-74.00821,40.71473993,-74.00910627,casual
C1C117E1E9471BC6,electric_bike,2025-10-16 09:10:15.433,2025-10-16 09:16:07.438,Washington Ave & Park Ave,4724.03,Sands St & Jay St,4821.03,40.69610226,-73.96751037,40.700119,-73.9862,casual
322B360E67E63EF9,electric_bike,2025-10-13 14:18:14.349,2025-10-13 14:31:34.382,W 46 St & 11 Ave,6795.01,W 44 St & 11 Ave,6756.05,40.76341379,-73.99667444,40.762009,-73.996975,casual
15A4D4384409687E,electric_bike,2025-10-01 17:05:49.239,2025-10-01 17:37:28.560,35 St & 23 Ave,7047.07,Broadway & E 19 St,5980.11,40.77301508291382,-73.91119033098221,40.73829,-73.99006,member
0363C1322D040E84,electric_bike,2025-10-15 20:50:52.899,2025-10-15 21:10:58.724,Richards St & Delavan St,4202.04,Canal St & Rutgers St,5303.08,40.6794327,-74.00785041,40.71427487,-73.98990025,member
9993F74E3B352E60,electric_bike,2025-10-26 03:12:14.017,2025-10-26 03:15:33.300,E 5 St & Ave A,5626.06,E 14 St & Ave B,5736.09,40.72479007746337,-73.98430064320564,40.72938685,-73.97772429,member
FFA319D82A8132EB,electric_bike,2025-10-01 13:01:52.846,2025-10-01 13:04:40.099,79 St & 37 Ave,6365.10,Broadway & 74 St,6332.10,40.74937,-73.88714,40.74653,-73.89121,member
12B96A35721D8C0F,electric_bike,2025-10-28 06:59:20.550,2025-10-28 07:04:35.820,FDR Drive & E 35 St,6230.04,E 47 St & 2 Ave,6498.10,40.744219,-73.97121214,40.75323098,-73.97032517,member
6313FF90DF1ACA9C,classic_bike,2025-10-19 18:43:02.928,2025-10-19 18:50:03.751,Market St & Henry St,5270.09,E 1 St & 1 Ave,5593.01,40.71310702305908,-73.99446353316307,40.72335597960796,-73.98864984512329,member
C834AB3F166644C4,classic_bike,2025-10-24 11:17:08.338,2025-10-24 11:22:57.068,Washington St & Laight St,5509.02,Murray St & Greenwich St,5288.12,40.72231,-74.0106,40.71485150526251,-74.01122331619263,casual
9D266C7F6A63809D,electric_bike,2025-10-07 00:33:52.191,2025-10-07 00:38:07.446,3 Ave & E 82 St,7154.10,E 68 St & Madison Ave,6932.15,40.775744,-73.9563752,40.7691572,-73.96703464,member
D86CE153D64FEE52,electric_bike,2025-10-15 13:54:09.609,2025-10-15 14:01:32.943,E 24 St & Park Ave S,6131.1,Ave A & E 14 St,5779.11,40.74096374,-73.98602213,40.73031071000895,-73.98047178983688,member
F3CC3559A6A996CB,electric_bike,2025-10-10 13:35:04.576,2025-10-10 14:26:36.480,8 Ave & W 31 St,6450.05,55 Dr & Maurice Ave,5579.04,40.7505853470215,-73.9946848154068,40.7261,-73.90917,casual
BF7BA3C1B589DCBC,electric_bike,2025-10-24 16:59:06.398,2025-10-24 17:08:36.312,E 43 St & Madison Ave,6551.11,W 45 St & 8 Ave,6676.02,40.75354681867074,-73.97896572947502,40.75929124,-73.98859651,casual
854BFBA32DE8161B,classic_bike,2025-10-29 09:58:02.135,2025-10-29 10:02:56.389,Dean St & Franklin Ave,4107.13,Eastern Pkwy & Franklin Ave (NE Corner),3919.07,40.67759206937376,-73.955637216568,40.6707767,-73.9576801,member
4A16B58667E911F2,electric_bike,2025-10-02 17:13:21.083,2025-10-02 17:24:52.786,E 50 St & Park Ave,6659.10,Central Park W & W 68 St,7079.06,40.757334,-73.974235,40.7734066,-73.97782542,member
D864B624202EBA02,electric_bike,2025-10-19 00:35:11.580,2025-10-19 00:47:40.957,W 104 St & Amsterdam Ave,7610.13,Madison Ave & E 120 St,7667.04,40.799041392882984,-73.96649479866028,40.80295,-73.942954,member
A712A6C43565C4F7,electric_bike,2025-10-26 12:54:22.851,2025-10-26 13:06:57.597,Garfield Pl & 8 Ave,3978.13,DeKalb Ave & Vanderbilt Ave,4461.04,40.6711978,-73.97484126,40.68940747,-73.96885458,casual
C39F7796145088E4,electric_bike,2025-10-16 20:31:35.180,2025-10-16 20:34:04.640,28 Ave & 35 St,6951.03,38 St & 30 Ave,6850.01,40.7671,-73.9169858,40.764174520197685,-73.91583994030952,member
82591061F393AC71,classic_bike,2025-10-18 14:48:44.626,2025-10-18 14:54:01.473,Scholes St & Manhattan Ave,5108.01,Bayard St & Leonard St,5442.05,40.70870368,-73.9448625,40.71915571696044,-73.94885390996933,member
37408FD868ECF16F,classic_bike,2025-10-04 14:03:04.997,2025-10-04 14:42:04.907,Central Park W & W 72 St,7141.07,36 Ave & 31 St,6572.08,40.77579376683666,-73.9762057363987,40.75651272984955,-73.92957486212252,member
B0B65A2F1D022175,classic_bike,2025-10-21 22:53:18.734,2025-10-21 22:59:39.402,4 Ave & E 12 St,5788.15,Greenwich Ave & Charles St,5914.08,40.732647,-73.99011,40.735238,-74.000271,member
18436F77B041B64E,electric_bike,2025-10-06 15:27:34.502,2025-10-06 15:31:59.321,University Pl & E 14 St,5905.14,W 18 St & 6 Ave,6064.08,40.734814,-73.992085,40.73971301,-73.99456405,member
726C98E3F7D35A1E,electric_bike,2025-10-17 09:36:14.402,2025-10-17 09:45:53.659,Columbia St & Rivington St,5365.02,Roebling St & N 4 St,5267.09,40.71739973,-73.98016555,40.71469,-73.95739,member
E510BCAD28BEF4D2,electric_bike,2025-10-02 20:59:10.460,2025-10-02 21:05:14.353,5 Ave & E 30 St,6248.08,W 25 St & 9 Ave,6339.06,40.7459849,-73.98629487,40.747832605837715,-74.0005722643582,member
C43C5D149A24BD1F,electric_bike,2025-10-08 15:09:12.877,2025-10-08 15:18:22.649,Linden Blvd & Nostrand Ave,3359.03,Sterling Pl & Franklin Ave,4033.16,40.65272,-73.94994,40.67324785,-73.95689517,member
1AFEF8C1B73B7272,classic_bike,2025-10-09 18:01:57.631,2025-10-09 18:09:43.440,Washington Pl & Greene St,5755.15,E 2 St & Ave B,5515.02,40.72980619180496,-73.99546380915461,40.72217444,-73.98368779,member
AD75D4B99BA84F0F,electric_bike,2025-10-02 17:49:31.754,2025-10-02 17:58:25.510,Bond St & Fulton St,4479.06,Washington Ave & Greene Ave,4419.03,40.6896218879,-73.9830426872,40.68650065,-73.96563307,member
967AAEEC5C0F5160,electric_bike,2025-10-08 04:01:26.232,2025-10-08 04:09:54.975,W 15 St & 7 Ave,6030.06,W 43 St & 10 Ave,6756.01,40.73935542,-73.99931783,40.76009437,-73.99461843,member
407D7B91B446166F,electric_bike,2025-10-06 21:09:44.858,2025-10-06 21:54:38.290,E 81 St & Park Ave,7188.10,Grand St & Elizabeth St,5382.06,40.77677702,-73.9590097,40.718822,-73.99596,member
972F9FF5DF9AB93F,electric_bike,2025-10-06 14:19:58.317,2025-10-06 14:23:31.226,5 Ave & E 72 St,7100.07,Central Park S & Grand Army Plaza,6839.15,40.77282817,-73.96685276,40.764555,-73.973473,member
972A60EBA87FC3F4,electric_bike,2025-10-29 17:30:14.691,2025-10-29 17:43:39.381,Matthews Ct & Coney Island Ave,3034.02,7 Ave & 41 St,3192.05,40.64235,-73.96951,40.647379,-74.000911,casual
E080E2A53FADCAD7,electric_bike,2025-10-24 18:32:23.006,2025-10-24 18:47:47.419,FDR Drive & E 35 St,6230.04,8 Ave & W 52 St,6816.07,40.744219,-73.97121214,40.76370739,-73.9851615,member
FB775C06230A51E0,electric_bike,2025-10-31 13:29:10.694,2025-10-31 13:49:34.186,W 51 St & 6 Ave,6740.10,Columbus Ave & W 103 St,7595.17,40.7606597,-73.98042047,40.7969347,-73.9643412291,member
3B55E0E08D994B53,electric_bike,2025-10-15 07:44:32.076,2025-10-15 07:46:38.509,St Nicholas Ave & Manhattan Ave,7723.01,W 129 St & Convent Ave,7818.17,40.809725,-73.953149,40.814394437915816,-73.95324736833572,member
1E8A32823DB569C5,classic_bike,2025-10-28 14:45:35.711,2025-10-28 14:46:37.260,Willoughby St & Fleet St,4628.05,Willoughby St & Ashland Pl,4587.02,40.69196566,-73.9813018,40.69178,-73.97877,member
D4AE14F22B04C704,classic_bike,2025-10-22 07:46:27.019,2025-10-22 07:52:25.743,11 Ave & W 41 St,6726.01,9 Ave & W 39 St,6644.08,40.76030096,-73.99884222,40.756403523272496,-73.99410143494606,member
42152B1AD180400C,classic_bike,2025-10-22 12:02:35.044,2025-10-22 12:04:24.064,Market St & Cherry St,5198.04,Pike St & Monroe St,5159.04,40.71076228,-73.99400398,40.71173107,-73.99193043,member
AAC3F97DB8E8AA63,classic_bike,2025-10-18 14:08:46.781,2025-10-18 14:23:33.972,E 60 St & York Ave,6682.08,44 Dr & 21 St,6319.03,40.759107,-73.959223,40.748036,-73.946705,member
B85409B8A52A7777,classic_bike,2025-10-09 21:04:43.570,2025-10-10 22:04:32.471,E 58 St & 1 Ave (NW Corner),6723.10,,,40.759125,-73.962658,,,casual
3FBF7680B6149CE7,electric_bike,2025-10-01 08:30:29.628,2025-10-01 08:53:17.531,S 2 St & Kent Ave,5276.04,5 Ave & E 30 St,6248.08,40.714731,-73.966612,40.7459849,-73.98629487,member
5D9D80EDE148472E,classic_bike,2025-10-08 14:46:32.826,2025-10-08 14:55:35.087,Metropolitan Ave & Bedford Ave,5308.04,S 4 St & Rodney St,5156.05,40.71534825,-73.96024116,40.70934,-73.95608,member
87A929E5C7350634,classic_bike,2025-10-26 10:14:42.563,2025-10-26 10:23:42.369,Devoe St & Lorimer St,5259.06,Nassau Ave & Russell St,5581.01,40.71335226222875,-73.9491033554077,40.72557,-73.94434,member
86720C9D883CCBDF,electric_bike,2025-10-04 18:38:13.373,2025-10-04 19:32:11.424,Barrow St & Hudson St,5805.05,Irving Ave & DeKalb Ave,4898.02,40.73172428,-74.00674436,40.7027,-73.92095,member
5E216AF271274FA9,electric_bike,2025-10-18 19:01:55.019,2025-10-18 19:09:24.768,6 Ave & W 34 St,6364.10,W 22 St & 8 Ave,6224.03,40.74964,-73.98805,40.74475148,-73.99915362,member
FD7544EBD0942A7E,electric_bike,2025-10-05 14:30:19.078,2025-10-05 14:36:43.093,Bedford Ave & Montgomery St,3736.03,Dean St & Franklin Ave,4107.13,40.665816,-73.956934,40.67759206937376,-73.955637216568,member
A1C8EE8FEEFF1547,electric_bike,2025-10-23 19:03:55.185,2025-10-23 19:14:43.164,Broadway & W 165 St,8191.01,Broadway & W 192 St,8511.08,40.839137,-73.941409,40.857994,-73.932173,member
EF8203CCE30CA17A,electric_bike,2025-10-03 18:09:06.880,2025-10-03 18:17:51.216,Broadway & W 48 St,6708.04,6 Ave & W 34 St,6364.10,40.76017739537783,-73.98486793041229,40.74964,-73.98805,member
B4A3FEC557D1793D,electric_bike,2025-10-25 11:52:54.080,2025-10-25 11:57:57.135,Grand St & Greene St,5500.02,Thompson St & Bleecker St,5721.07,40.72170005235607,-74.00238141417502,40.72840059450829,-73.99968780577183,member
F5D33033DB4B5EE9,classic_bike,2025-10-04 21:11:50.799,2025-10-04 21:23:05.092,8 Ave & W 52 St,6816.07,W 54 St & 11 Ave,6955.05,40.76370739,-73.9851615,40.768333,-73.992573,member
4ADD2864CE018B7E,electric_bike,2025-10-19 09:44:24.186,2025-10-19 09:52:48.681,E 74 St & 1 Ave,6953.08,1 Ave & E 62 St,6753.08,40.7689738,-73.95482273,40.7612274,-73.96094022,casual
3B9C63E4527E85D8,electric_bike,2025-10-03 16:42:40.547,2025-10-03 16:54:13.486,Pierrepont St & Monroe Pl,4718.08,Pioneer St & Van Brunt St,4169.04,40.69535693320225,-73.99344027042389,40.679043,-74.011169,member
ED427044F110E38D,classic_bike,2025-10-28 16:57:33.784,2025-10-28 17:00:18.556,Graham Ave & Conselyea St,5291.05,Engert Ave & McGuinness Blvd,5473.03,40.715143,-73.944507,40.72158,-73.94546,member
5E7F2461C02B79A9,electric_bike,2025-10-23 16:18:50.199,2025-10-23 16:24:37.484,Pier 61 at Chelsea Piers,6233.04,W 15 St & 6 Ave,5989.02,40.746872,-74.00821,40.738046142482766,-73.99642959237099,member
CC880C8291DDF6F9,classic_bike,2025-10-16 09:45:05.100,2025-10-16 09:53:40.502,4 Ave & 3 St,4028.04,Smith St & 9 St,4077.04,40.673746,-73.985649,40.6746957,-73.99785768,member
7F664F4E9EC3C025,electric_bike,2025-10-31 17:59:28.267,2025-10-31 18:05:37.294,E 135 St & St Ann's Ave,7687.05,E 142 St & 3 Ave,7781.10,40.805089,-73.918889,40.812735,-73.923697,member
D8A3848ADC29047B,classic_bike,2025-10-23 22:07:52.571,2025-10-23 22:12:55.094,44 Dr & Jackson Ave,6352.01,Queens Plaza North & Crescent St,6429.01,40.74718234,-73.9432635,40.75110165,-73.94073717,member
89D0DFF7EF64FF23,electric_bike,2025-10-22 11:08:19.151,2025-10-22 11:20:06.848,W 52 St & 5 Ave,6700.01,E 77 St & 3 Ave,7092.06,40.75992262,-73.97648516,40.77314236,-73.95856158,member
919CE7D607781D2B,classic_bike,2025-10-08 20:00:29.466,2025-10-08 20:21:14.844,Greenwich Ave & Charles St,5914.08,Henry St & Grand St,5294.04,40.735238,-74.000271,40.714211,-73.981095,member
F4BCDE37F710BB92,electric_bike,2025-10-25 16:36:40.818,2025-10-25 16:48:10.618,W 67 St & Broadway,7116.04,E 63 St & 3 Ave,6830.02,40.77492513,-73.98266566,40.763954,-73.9646,member
8FF9AAA6A6AF5D7F,electric_bike,2025-10-21 05:58:30.842,2025-10-21 06:04:46.129,Kingsland Ave & Nassau Ave,5613.04,Metropolitan Ave & Bedford Ave,5308.04,40.72577,-73.94173,40.71534825,-73.96024116,member
9AF0A86ACDC6A71A,electric_bike,2025-10-22 12:37:48.141,2025-10-22 12:44:33.908,Madison St & Cypress Ave,4807.02,Knickerbocker Ave & Moffat St,4582.08,40.70068,-73.90742,40.690434,-73.903737,member
64CCBAB2AF2FFEC6,classic_bike,2025-10-02 16:11:03.629,2025-10-02 16:12:18.581,Bus Slip & State St,4889.06,Pearl St & Whitehall St,4962.09,40.701907,-74.013942,40.703144,-74.013178,member
FD2B88319F1CC6A7,electric_bike,2025-10-06 08:59:03.126,2025-10-06 09:09:04.643,Forsyth St & Grand St,5382.07,Gramercy Park N & Gramercy Park E,6013.12,40.71779817737835,-73.99316132068634,40.73795,-73.98509,member
C6B38F780E5168FB,classic_bike,2025-10-14 19:54:36.400,2025-10-14 19:59:48.980,W 31 St & 7 Ave,6331.01,E 32 St & Park Ave,6280.12,40.749156,-73.9916,40.7457121,-73.98194829,member
C02FC1025E98158E,electric_bike,2025-10-28 16:03:16.133,2025-10-28 16:07:02.429,Broadway & W 29 St,6289.06,Broadway & W 38 St,6560.15,40.7462009,-73.98855723,40.7529728216068,-73.98734897375107,member
DCBEE23697B66EAD,electric_bike,2025-10-19 03:43:52.188,2025-10-19 04:08:39.920,5 Ave & E 78 St,7161.08,Central Park W & W 85 St,7354.01,40.77632142182271,-73.96427392959595,40.78476,-73.969862,casual
9319C5698D241579,electric_bike,2025-10-18 12:01:27.646,2025-10-18 12:39:33.894,E 7 St & Ave B,5584.05,E 7 St & Ave C,5545.01,40.7251285241158,-73.98131668567657,40.72412944090093,-73.97901266813278,member
C9AC4C3ABFF1CB77,electric_bike,2025-10-15 14:39:09.314,2025-10-15 14:47:05.903,W 146 St & Broadway,8018.09,Wadsworth Ave & W 179 St,8336.02,40.826969,-73.949738,40.848467,-73.936064,casual
DE12E787BB7F554D,classic_bike,2025-10-10 13:33:31.732,2025-10-10 13:40:23.478,Carlton Ave & Flushing Ave,4732.08,Willoughby St & Ashland Pl,4587.02,40.697787,-73.973736,40.69178,-73.97877,member
DC92EF246D04F34D,electric_bike,2025-10-30 18:56:35.002,2025-10-30 19:02:10.551,Broadway & E 21 St,6098.10,W 31 St & 7 Ave,6331.01,40.739888408589955,-73.98958593606949,40.749156,-73.9916,member
201561CE9E2FEB98,electric_bike,2025-10-07 08:50:14.000,2025-10-07 08:53:46.221,W 204 St & Vermilyea Ave,8632.07,Sherman Ave & Thayer St,8583.02,40.866141,-73.922648,40.863124,-73.926994,member
D139FED87169F105,electric_bike,2025-10-15 17:59:07.415,2025-10-15 18:21:35.766,St Marks Pl & 4 Ave,4249.01,Kent Ave & Grand St,5388.01,40.68197,-73.98034,40.716425,-73.96594,member
1705A5797EB8BAF3,electric_bike,2025-10-07 12:31:41.191,2025-10-07 12:45:12.188,E 50 St & Park Ave,6659.10,9 Ave & W 22 St,6266.06,40.757334,-73.974235,40.7454973,-74.00197139,member
2D661B28E5CA401B,electric_bike,2025-10-10 16:38:03.670,2025-10-10 16:41:19.958,7 Ave & Park Pl,4125.07,Carroll St & 6 Ave,4019.06,40.6776147,-73.97324283,40.6740886,-73.9787282,casual
BA6CCC5B1B7B82FE,classic_bike,2025-10-28 10:49:47.497,2025-10-28 10:59:36.972,Mercer St & Bleecker St,5679.05,Ave D & E 8 St,5506.10,40.72706363348306,-73.99662137031554,40.72368361,-73.97574813,member
4793B74FBCE468B7,classic_bike,2025-10-03 23:14:10.749,2025-10-03 23:20:14.861,University Pl & E 8 St,5755.14,E 15 St & 3 Ave,5863.07,40.73143724085228,-73.99490341544151,40.734232,-73.986923,member
224CA4415870EB5D,electric_bike,2025-10-05 12:15:40.615,2025-10-05 12:19:15.108,Cambridge Pl & Gates Ave,4377.04,DeKalb Ave & Vanderbilt Ave,4461.04,40.68488,-73.96304,40.68940747,-73.96885458,member
DA9F3F69470D48EA,electric_bike,2025-10-19 18:05:42.301,2025-10-19 18:11:57.457,Mott St & Prince St,5561.04,E 13 St & Ave A,5779.09,40.72317958,-73.99480012,40.72966729392978,-73.98067966103554,member
72065C558C83F3A6,electric_bike,2025-10-17 17:59:13.976,2025-10-17 18:05:38.882,Featherbed Ln & Nelson Ave,8327.15,W 190 St & St Nicholas Ave,8453.14,40.846011,-73.919637,40.854788,-73.929513,member
9A78822738B52D63,electric_bike,2025-10-22 17:37:51.588,2025-10-22 17:43:30.558,44 St & 2 Ave,3356.05,36 St & 4 Ave,3420.01,40.652502,-74.013587,40.654144,-74.00422,member
25447EB0805241AA,electric_bike,2025-10-01 09:52:11.405,2025-10-01 10:05:45.686,Pier 61 at Chelsea Piers,6233.04,Bleecker St & Crosby St,5679.08,40.746872,-74.00821,40.72615604980408,-73.99510189890862,member
6737CDB04324C8B1,electric_bike,2025-10-16 14:34:55.988,2025-10-16 14:50:35.366,3 Ave & 14 St,3850.03,New York Ave & Montgomery St,3728.05,40.6685455,-73.99333264,40.66509,-73.94824,casual
478A814608D4D8BF,electric_bike,2025-10-18 14:26:15.357,2025-10-18 14:36:47.315,W 43 St & 6 Ave,6593.14,W 33 St & 10 Ave,6492.04,40.75527307,-73.98316936,40.753773368360385,-73.99937599897385,casual
A3CA09B660720670,electric_bike,2025-10-01 15:48:34.834,2025-10-01 16:01:40.443,W 176 St & Montgomery Ave,8366.06,E 163 St & Tiffany St,7927.08,40.849629,-73.919205,40.821075,-73.895069,member
FEE3A30D8536AAAA,electric_bike,2025-10-07 08:23:55.505,2025-10-07 08:25:48.969,Grand St & Samuel Dickstein Plaza,5335.07,Canal St & Rutgers St,5303.08,40.71511871996496,-73.98417055606842,40.71427487,-73.98990025,member
3C16A3F5E17EEE6D,classic_bike,2025-10-21 10:53:07.250,2025-10-21 10:57:15.971,E 102 St & Park Ave,7488.24,Lexington Ave & E 111 St,7567.06,40.7904828,-73.95033068,40.7954121,-73.9441232,member
674B586FA01D7056,electric_bike,2025-10-21 22:00:02.010,2025-10-21 22:05:59.226,Gramercy Park N & Gramercy Park E,6013.12,E 33 St & 1 Ave,6197.08,40.73795,-73.98509,40.74322681432173,-73.97449783980846,member
5F4A644CB0C2FF6B,electric_bike,2025-10-01 18:36:46.216,2025-10-01 18:47:26.957,W 59 St & 10 Ave,7023.04,Pier 61 at Chelsea Piers,6233.04,40.770513,-73.988038,40.746872,-74.00821,member
E01B2BF573B70714,electric_bike,2025-10-08 10:22:59.264,2025-10-08 10:28:45.904,India St Pier,5794.05,Berry St & N 8 St,5379.09,40.731734785883454,-73.9612390102593,40.7190095,-73.95852515,member
2FC4D7002DB16FDE,electric_bike,2025-10-22 12:41:31.975,2025-10-22 12:58:21.303,Amsterdam Ave & W 82 St,7360.10,W 36 St & 7 Ave,6483.06,40.78524672,-73.97667321,40.752149,-73.989539,member
4675AF9A195EB78C,classic_bike,2025-10-20 18:10:34.765,2025-10-20 18:58:55.957,West St & Chambers St,5329.03,Sterling Pl & New York Ave,3984.02,40.71754834,-74.01322069,40.67234,-73.94763,member
DFDD096CDEB6C9FA,electric_bike,2025-10-21 19:27:10.892,2025-10-21 19:35:36.667,Bergen St & 4 Ave,4322.06,6 Ave & 12 St,3803.05,40.68256425759694,-73.9798977971077,40.6663181,-73.9854617,casual
B2C59100CC7BF4FB,electric_bike,2025-10-15 08:31:26.245,2025-10-15 08:51:50.101,Greenpoint Ave & Manhattan Ave,5785.05,W Broadway & Spring St,5569.06,40.73026,-73.95394,40.72494672359416,-74.00165855884552,member
28B98A760D0932C9,electric_bike,2025-10-31 16:17:51.173,2025-10-31 16:33:05.416,W 42 St & 8 Ave,6602.05,Amsterdam Ave & W 73 St,7260.09,40.7575699,-73.99098507,40.77966809007312,-73.98093044757842,member
B1E883D7C4D4877D,classic_bike,2025-10-20 12:27:37.710,2025-10-20 12:33:10.107,E 5 St & Ave C,5545.04,St Marks Pl & 2 Ave,5669.10,40.72299208,-73.97995466,40.7284186,-73.98713956,member
488C85EC45CB48DA,electric_bike,2025-10-28 18:03:47.432,2025-10-28 18:10:50.928,Park Ave & E 40 St,6432.15,W 49 St & 8 Ave,6747.06,40.75112,-73.97851,40.76227205,-73.98788205,member
2061E6D8CE37F383,electric_bike,2025-10-07 20:53:09.777,2025-10-07 20:59:33.094,W Fordham Rd & Loring Pl N,8590.01,E 189 St & Bathgate Ave,8505.08,40.86295,-73.90741,40.85859,-73.88821,casual
7ED65DC14D1606C8,electric_bike,2025-10-09 08:00:15.887,2025-10-09 08:06:16.120,FDR Drive & E 35 St,6230.04,E 45 St & 3 Ave,6464.08,40.744219,-73.97121214,40.75255434,-73.97282625,member
0B7FD87A616F2428,electric_bike,2025-10-19 09:47:38.223,2025-10-19 10:06:24.069,W 17 St & 7 Ave,6107.08,Central Park W & W 68 St,7079.06,40.74056423633952,-73.99852573871613,40.7734066,-73.97782542,member
4206BFA883A2FC2B,classic_bike,2025-10-08 09:30:20.228,2025-10-08 09:37:19.028,5 Ave & E 78 St,7161.08,2 Ave & E 72 St,6925.09,40.77632142182271,-73.96427392959595,40.7687620293096,-73.95840793848038,member
0C8CBFD682415510,electric_bike,2025-10-19 17:38:58.320,2025-10-19 18:10:05.531,Warren St & Court St,4413.08,53 St & Flushing Ave,5257.01,40.686371,-73.99383324,40.71435,-73.91405,member
6E43AA7C9E0A1854,electric_bike,2025-10-22 19:03:29.863,2025-10-22 19:13:29.143,Pacific St & Nevins St,4362.04,Montague St & Hicks St,4718.11,40.6853761,-73.98302136,40.69522407512035,-73.99598850939152,member
94E0A38602E0183F,classic_bike,2025-10-02 17:47:45.260,2025-10-02 17:55:33.202,Broadway & W 29 St,6289.06,8 Ave & W 38 St,6526.05,40.7462009,-73.98855723,40.75461,-73.99177,member
5AA5F4BAF5D7B578,electric_bike,2025-10-29 12:00:18.112,2025-10-29 12:37:33.814,W 29 St & 9 Ave,6416.06,Amsterdam Ave & W 79 St,7311.02,40.7500727,-73.99839279,40.7829391,-73.9786517,member
4FAA9AF58D1D747C,classic_bike,2025-10-08 22:39:42.489,2025-10-08 22:47:29.987,Roebling St & N 4 St,5267.09,S 4 St & Roebling St,5195.06,40.71469,-73.95739,40.710709,-73.959724,casual
062DBA2F0B623911,classic_bike,2025-10-15 08:15:00.030,2025-10-15 08:16:56.130,Congress St & Hicks St,4497.09,Congress St & Clinton St,4455.10,40.6893952,-73.9995126,40.68825516598005,-73.99545192718506,member
7F54D3B64920B3E8,classic_bike,2025-10-14 05:41:23.512,2025-10-14 05:47:15.903,21 St & Hoyt Ave S,7126.01,31 Ave & 30 St,6857.09,40.774645,-73.923706,40.7647,-73.9240312,member
543A011476E07F8A,electric_bike,2025-10-01 09:40:28.822,2025-10-01 09:53:11.629,W 29 St & 9 Ave,6416.06,E 47 St & Park Ave,6584.12,40.7500727,-73.99839279,40.75510267,-73.97498696,member
078AD0B9CC1CADE7,electric_bike,2025-10-31 12:40:54.019,2025-10-31 12:46:03.643,E 26 St & 3 Ave,6089.11,E 14 St & 1 Ave,5779.10,40.74069317733043,-73.98160636425018,40.73139303364151,-73.98286700248718,member
08398064B192AEFC,electric_bike,2025-10-19 18:51:12.153,2025-10-19 18:54:27.184,E 23 St & 1 Ave,5929.01,E 33 St & 1 Ave,6197.08,40.736502,-73.97809472,40.74322681432173,-73.97449783980846,member
AE14E1EA19095119,electric_bike,2025-10-07 09:42:35.245,2025-10-07 10:00:05.718,Riverside Dr & W 104 St,7623.13,E 66 St & Madison Ave,6969.08,40.8013434,-73.9711457439,40.76800889305947,-73.96845281124115,member
A835E79DEA9FDB5E,electric_bike,2025-10-31 08:18:34.865,2025-10-31 08:21:21.752,Little West St & 1 Pl,5001.08,West St & Liberty St,5184.08,40.70569254,-74.01677685,40.711444,-74.014847,member
3AA9E0EC9127CE52,electric_bike,2025-10-09 11:59:39.237,2025-10-09 12:06:25.242,St Johns Pl & Utica Ave,3966.01,St Marks Ave & Thomas S. Boyland St,4023.01,40.6705,-73.9308,40.67313,-73.91387,member
688839D8DBB05D8A,classic_bike,2025-10-30 17:10:29.682,2025-10-30 17:14:23.889,Henry St & Degraw St,4380.08,Warren St & Smith St,4371.01,40.6847514,-73.99917254,40.685424009970184,-73.99127773940563,member
8C03387D11E02681,electric_bike,2025-10-25 07:32:49.946,2025-10-25 07:37:11.564,E 16 St & 5 Ave,6022.04,W 11 St & 6 Ave,5914.03,40.73726186,-73.99238967,40.73532427,-73.99800419,member
659B8083652078DE,electric_bike,2025-10-23 17:02:12.544,2025-10-23 17:12:51.193,Broadway & W 38 St,6560.15,E 25 St & 1 Ave,6004.07,40.7529728216068,-73.98734897375107,40.7381765,-73.97738662,member
7ACA5D653D6BB85D,electric_bike,2025-10-24 07:44:58.402,2025-10-24 07:59:28.268,Market St & Henry St,5270.09,Lafayette Ave & Ft Greene Pl,4470.09,40.71310702305908,-73.99446353316307,40.68700231292619,-73.97664964199066,member
093BBDBE38322D82,electric_bike,2025-10-10 10:55:59.898,2025-10-10 11:33:35.549,Dock St & Front St,4903.09,Rivington St & Ridge St,5406.02,40.702709,-73.99253,40.71850211,-73.98329859,casual
812184E6399B0201,classic_bike,2025-10-22 18:58:02.028,2025-10-22 19:11:13.758,Lafayette Ave & St James Pl,4494.04,S 2 St & Kent Ave,5276.04,40.68851534,-73.9647628,40.714731,-73.966612,member
A0A570748EA2C035,classic_bike,2025-10-02 19:22:41.260,2025-10-02 19:26:48.733,E 22 St & 2 Ave,5971.09,E 20 St & FDR Dr,5886.13,40.73716919369882,-73.98122549057007,40.733208626522426,-73.9756813647,member
51A794054DC20969,electric_bike,2025-10-16 19:18:47.994,2025-10-16 19:38:36.483,Norfolk St & Broome St,5374.01,Bond St & Fulton St,4479.06,40.7172274,-73.98802084,40.6896218879,-73.9830426872,member
62D5541631CE0474,classic_bike,2025-10-18 13:04:52.139,2025-10-18 13:08:40.672,8 Ave & W 27 St,6297.07,W 29 St & 9 Ave,6416.06,40.747968,-73.996637,40.7500727,-73.99839279,casual
B7A8092FACDE611A,electric_bike,2025-10-20 17:31:34.409,2025-10-20 17:50:01.549,4 Ave & E 12 St,5788.15,Ave D & E 8 St,5506.10,40.732647,-73.99011,40.72368361,-73.97574813,member
A0B540064B412FBE,classic_bike,2025-10-10 12:17:25.145,2025-10-10 12:27:11.100,LaGuardia Pl & W 3 St,5721.14,Watts St & Greenwich St,5578.02,40.72917025,-73.99810231,40.72405549,-74.00965965,member
A4FE166066C7B9EA,classic_bike,2025-10-20 08:44:35.606,2025-10-20 08:52:55.389,Park Ave & E 40 St,6432.15,W 37 St & 10 Ave,6611.02,40.75112,-73.97851,40.75660359,-73.9979009,member
C0BB6573AF8C0D30,classic_bike,2025-10-19 13:59:19.276,2025-10-19 14:07:10.972,N 6 St & Bedford Ave,5379.10,Leonard St & Nassau Ave,5550.09,40.71745169,-73.95850939,40.7239567849954,-73.94984364509583,member
7BE18AB3BEFCE8CB,electric_bike,2025-10-27 17:09:10.761,2025-10-27 17:19:55.089,Grand Ave & Bergen St,4190.06,DeKalb Ave & Bedford Ave,4562.02,40.678045,-73.962408,40.690894,-73.955195,member
2C40429A36F7FC7C,electric_bike,2025-10-07 14:05:01.483,2025-10-07 14:07:35.898,Franklin St & W Broadway,5430.08,Washington St & Laight St,5509.02,40.71911552,-74.00666661,40.72231,-74.0106,member
47025DABB4D8620C,electric_bike,2025-10-23 20:58:32.201,2025-10-23 21:21:52.305,University Pl & E 8 St,5755.14,E 74 St & 1 Ave,6953.08,40.73143724085228,-73.99490341544151,40.7689738,-73.95482273,member
2B160EB194AC8AE5,electric_bike,2025-10-29 09:12:57.405,2025-10-29 09:17:02.621,2 Ave & E 29 St,6122.09,E 33 St & 5 Ave,6322.01,40.741723510974715,-73.97809267044067,40.74765947,-73.98490707,member
3355E6F6A6C46CE9,electric_bike,2025-10-08 14:53:10.711,2025-10-08 15:01:12.638,Carmine St & 6 Ave,5763.03,1 Ave & E 18 St,5854.09,40.73038599,-74.00214988,40.733812191966315,-73.98054420948029,member
0CD2930D43DB8F94,electric_bike,2025-10-01 19:13:55.172,2025-10-01 19:20:38.862,W 13 St & 5 Ave,5947.04,E 7 St & Ave A,5626.07,40.735445,-73.99431,40.72621788,-73.98379855,member
A1328C01A92E3747,electric_bike,2025-10-28 08:21:37.224,2025-10-28 08:26:19.217,Wadsworth Ave & W 179 St,8336.02,Audubon Ave & Fort George Ave,8491.07,40.848467,-73.936064,40.85715781391904,-73.92717361450195,member
0BE01FE556FCB1ED,classic_bike,2025-10-18 14:48:10.821,2025-10-18 16:00:48.221,S 4 St & Roebling St,5195.06,Clinton St & Grand St,5303.06,40.710709,-73.959724,40.71559509,-73.9870295,casual
5161A41C1CB6A624,electric_bike,2025-10-21 08:51:46.092,2025-10-21 09:08:21.807,W 29 St & 9 Ave,6416.06,E 58 St & Madison Ave,6839.04,40.7500727,-73.99839279,40.76302594280519,-73.97209525108337,member
624F19D8D2E0A75D,classic_bike,2025-10-21 17:11:11.142,2025-10-21 17:16:00.355,E 15 St & 5 Ave,5947.06,Lafayette St & E 8 St,5788.13,40.736592,-73.992949,40.73020660529954,-73.99102628231049,member
1E9B92D9E017E107,electric_bike,2025-10-28 08:26:26.647,2025-10-28 08:42:54.469,Sheridan Ave & E 168 St,8160.03,Boston Rd & E 178 St,8248.05,40.835334,-73.9154,40.84096,-73.87923,member
736EF38297CEEE59,electric_bike,2025-10-15 09:17:27.526,2025-10-15 09:28:52.260,Queens Plaza North & Crescent St,6429.01,E 66 St & Madison Ave,6969.08,40.75110165,-73.94073717,40.76800889305947,-73.96845281124115,member
A438F44792EA9C88,electric_bike,2025-10-05 15:35:17.815,2025-10-05 15:54:12.388,Broadway & W 122 St,7783.18,E 76 St & Park Ave,7128.08,40.8120562,-73.9612547,40.773763,-73.96222088,member
AB4ACC165A1FCE02,electric_bike,2025-10-14 07:15:41.492,2025-10-14 07:23:45.068,Knickerbocker Ave & Hancock St,4663.02,Central Ave & Flushing Ave,4947.04,40.69385,-73.90974,40.702831,-73.9333,member
22C63BEBDE3785A9,electric_bike,2025-10-09 16:46:19.432,2025-10-09 16:49:33.082,Greenpoint Ave & West St,5752.09,Wythe Ave & N 13 St,5558.04,40.729803,-73.959099,40.722767,-73.957021,casual
18A41D4738D634D5,electric_bike,2025-10-23 06:36:49.651,2025-10-23 06:56:15.260,South St & Whitehall St,4846.01,W 34 St & Hudson Blvd E,6535.04,40.70122128,-74.01234218,40.75516719072139,-74.00059908628464,member
14B14DCA0C5800E8,classic_bike,2025-10-14 10:59:42.131,2025-10-14 11:05:45.844,Bushwick Ave & Forrest St,4914.03,Montrose Ave & Bushwick Ave,5068.02,40.70076,-73.93641,40.70767788,-73.94016171,member
E2E092A9E95CF53A,electric_bike,2025-10-03 21:32:42.387,2025-10-03 21:46:06.841,W 64 St & Thelonious Monk Circle,7123.04,E 53 St & 3 Ave,6617.02,40.77515953434235,-73.98918695747852,40.75763227739443,-73.96930575370789,member
F7D5698DB4FC404D,electric_bike,2025-10-31 09:53:24.162,2025-10-31 09:58:45.106,McKibbin St & Manhattan Ave,4996.08,Graham Ave & Withers St,5403.04,40.70510918,-73.94407279,40.7169811,-73.94485918,member
53C834C46C6E2162,electric_bike,2025-10-29 12:59:55.722,2025-10-29 13:09:28.589,W 84 St & Columbus Ave,7382.04,Broadway & W 58 St,6948.10,40.78499979,-73.97283406,40.76695317,-73.98169333,member
DBA872C8D045F668,electric_bike,2025-10-10 18:25:39.584,2025-10-10 18:31:25.625,E 40 St & 5 Ave,6474.11,E 30 St & Park Ave S,6206.08,40.752062307,-73.9816324043,40.74444921,-73.98303529,member
24F4333F71FEBEB5,electric_bike,2025-10-16 17:41:28.261,2025-10-16 17:56:52.647,Broadway & W 48 St,6708.04,E 91 St & 2 Ave,7286.01,40.76017739537783,-73.98486793041229,40.78115276427915,-73.94963040947914,member
B83AFCC735C61951,electric_bike,2025-10-15 09:56:47.908,2025-10-15 10:06:26.306,MacDougal St & Prince St,5687.04,W 20 St & 11 Ave,6306.07,40.72710258,-74.00297088,40.746745,-74.007756,member
763FFAB41576962E,classic_bike,2025-10-09 18:46:18.123,2025-10-09 19:15:22.246,St Marks Pl & 2 Ave,5669.10,Lewis Ave & Madison St,4425.02,40.7284186,-73.98713956,40.686312,-73.935775,member
939DF96DD641938A,electric_bike,2025-10-25 08:26:55.781,2025-10-25 08:30:26.400,72 St & 31 Ave,6686.07,49 St & 31 Ave,6662.01,40.7584,-73.89531,40.758057,-73.909831,member
B9DC8C83F72CFC70,classic_bike,2025-10-20 18:11:52.940,2025-10-20 18:19:20.991,Central Park North & Adam Clayton Powell Blvd,7617.07,Frederick Douglass Blvd & W 129 St,7795.09,40.799484,-73.955613,40.8125511,-73.9492286,member
B99244B02E677780,electric_bike,2025-10-29 13:01:52.199,2025-10-29 13:05:39.759,Mott St & Prince St,5561.04,4 Ave & E 12 St,5788.15,40.72317958,-73.99480012,40.732647,-73.99011,member
40FAA9F6CAC85577,electric_bike,2025-10-31 12:41:34.972,2025-10-31 13:29:38.978,Broadway & W 58 St,6948.10,5 Ave & E 78 St,7161.08,40.76695317,-73.98169333,40.77632142182271,-73.96427392959595,casual
C21AA315B7590BC2,electric_bike,2025-10-15 18:41:15.186,2025-10-15 18:43:47.504,47 Ave & Skillman Ave,6237.01,49 Ave & 21 St,6128.04,40.7437524099784,-73.94176483154297,40.74252,-73.948852,casual
538A5503FCC7B57C,electric_bike,2025-10-05 14:39:38.564,2025-10-05 14:44:55.378,Lincoln Rd & Ocean Ave,3633.08,Rogers Ave & Lincoln Rd,3625.07,40.6605,-73.9626,40.66127,-73.95352,member
7D70E248F917EC38,classic_bike,2025-10-21 08:10:10.398,2025-10-21 08:17:58.510,E 14 St & Ave B,5736.09,E 23 St & FDR Dr,5929.07,40.72938685,-73.97772429,40.736,-73.97605,member
48D14787B0B14C6C,electric_bike,2025-10-19 13:17:42.714,2025-10-19 13:29:27.626,Frederick Douglass Blvd & W 129 St,7795.09,Grand Concourse & E 166 St,8092.06,40.8125511,-73.9492286,40.83196,-73.91956,member
678070B752ABEC0A,electric_bike,2025-10-26 10:22:41.958,2025-10-26 10:25:04.681,24 Ave & 26 St,7152.10,31 St & Hoyt Ave N,7018.01,40.774591,-73.918544,40.7711528,-73.9170074,member
265FED989CD452E6,classic_bike,2025-10-07 07:17:50.142,2025-10-07 07:22:35.999,Adam Clayton Powell Blvd & W 123 St,7704.04,Lenox Ave & W 117 St,7655.22,40.8078316,-73.949373,40.8025566,-73.9490782,member
F988ED8DFBD2B2D0,electric_bike,2025-10-20 11:48:33.989,2025-10-20 12:54:55.046,W 89 St & Columbus Ave,7432.09,,,40.7882213,-73.97041561,,,member
30FBC9BD3DFBCDD7,electric_bike,2025-10-01 14:46:44.157,2025-10-01 14:55:16.629,3 Ave & E 82 St,7154.10,E 67 St & Park Ave,6932.14,40.775744,-73.9563752,40.76780080148132,-73.96592080593109,casual
DF2914E3F8B43FA0,classic_bike,2025-10-05 11:31:40.314,2025-10-05 11:35:46.498,Adam Clayton Powell Blvd & W 151 St,8009.05,Edgecombe Ave & W 145 St,7976.08,40.825289,-73.936232,40.823498,-73.94386,casual
5740039D09BF0993,classic_bike,2025-10-26 16:38:33.247,2025-10-26 17:06:27.157,Centre St & Chambers St,5207.01,W 12 St & Hudson St,5997.10,40.71273266,-74.0046073,40.73752993301071,-74.00558933615685,casual
308C425C8896B7A1,electric_bike,2025-10-31 10:24:18.796,2025-10-31 10:31:26.133,E 2 St & Ave B,5515.02,LaGuardia Pl & W 3 St,5721.14,40.72217444,-73.98368779,40.72917025,-73.99810231,member
E1C810ABD5AD5944,electric_bike,2025-10-18 16:12:35.163,2025-10-18 16:20:01.885,E 39 St & Lexington Ave,6389.09,W 20 St & 5 Ave,6098.02,40.749498546025194,-73.97729203113158,40.73972989238724,-73.99103969335556,member
76E95471D6C9E8A1,electric_bike,2025-10-27 17:14:33.864,2025-10-27 17:16:38.690,2 Ave & E 29 St,6122.09,E 31 St & 3 Ave,6239.08,40.741723510974715,-73.97809267044067,40.74394314,-73.97966069,member
E09E3D27FF289A6A,classic_bike,2025-10-14 20:29:46.288,2025-10-14 20:41:46.060,Hudson St & W 13 St,6115.06,Mott St & Prince St,5561.04,40.74005708567285,-74.0052741765976,40.72317958,-73.99480012,member
3F29B2DD3E35056F,electric_bike,2025-10-04 14:42:10.457,2025-10-04 15:28:08.287,5 Ave & E 78 St,7161.08,5 Ave & E 87 St,7323.09,40.77632142182271,-73.96427392959595,40.78232260730881,-73.95987510681152,casual
B57AA88F15A7249C,classic_bike,2025-10-02 19:55:39.017,2025-10-02 19:57:11.195,Graham Ave & Withers St,5403.04,Graham Ave & Conselyea St,5291.05,40.7169811,-73.94485918,40.715143,-73.944507,member
B4137268C9906184,classic_bike,2025-10-05 00:12:48.563,2025-10-05 00:24:55.460,MacDougal St & Prince St,5687.04,W 22 St & 10 Ave,6306.06,40.72710258,-74.00297088,40.74691959,-74.00451887,member
A8DD579095AD9646,electric_bike,2025-10-23 21:31:07.850,2025-10-23 21:34:42.389,N 6 St & Bedford Ave,5379.10,Kent Ave & Grand St,5388.01,40.71745169,-73.95850939,40.716425,-73.96594,member
A6DF866B31D064F7,electric_bike,2025-10-22 20:05:54.632,2025-10-22 20:18:47.680,Wadsworth Ave & W 179 St,8336.02,University Ave & W 168 St,8183.02,40.848467,-73.936064,40.838706,-73.927034,member
A977479128BB8688,electric_bike,2025-10-08 11:29:55.876,2025-10-08 11:34:04.047,Hudson St & Reade St,5359.10,6 Ave & Broome St,5610.09,40.71625008,-74.0091059,40.72431,-74.00473,member
579702418979D9B3,classic_bike,2025-10-26 21:05:55.651,2025-10-26 21:09:48.827,Carlton Ave & Dean St,4199.12,Prospect Pl & 6 Ave,4166.08,40.6809741,-73.9710097,40.6793307,-73.97519523,member
6C0E20CD73E328BD,electric_bike,2025-10-20 17:52:35.501,2025-10-20 17:58:13.317,Kent Ave & Grand St,5388.01,Hope St & Union Ave,5187.03,40.716425,-73.96594,40.71167351,-73.95141312,member
1605D792B4DBD8DF,classic_bike,2025-10-30 19:30:42.591,2025-10-30 19:38:51.847,5 Ave & E 30 St,6248.08,W 20 St & 8 Ave,6224.05,40.7459849,-73.98629487,40.74345335,-74.00004031,member
B640712A10908637,electric_bike,2025-10-09 17:54:42.832,2025-10-09 18:10:20.851,10 Ave & W 14 St,6157.04,West End Ave & W 60 St,7059.08,40.741981599940225,-74.00831580162048,40.77237,-73.99005,member
3E3AF45A56128409,electric_bike,2025-10-29 19:53:13.244,2025-10-29 20:00:04.852,Mercer St & Bleecker St,5679.05,E 9 St & Ave C,5616.01,40.72706363348306,-73.99662137031554,40.72521311,-73.97768752,member
CEEFEBA8A7537E08,electric_bike,2025-10-21 20:16:02.504,2025-10-21 20:22:42.611,Lafayette St & Grand St,5422.09,West St & Chambers St,5329.03,40.72028,-73.99879,40.71754834,-74.01322069,member
AE4A6E50C96332B3,electric_bike,2025-10-31 11:22:38.196,2025-10-31 11:27:13.666,Powers St & Olive St,5210.01,Graham Ave & Withers St,5403.04,40.71323,-73.93894,40.7169811,-73.94485918,member
1C5F5C38E41A5AD8,electric_bike,2025-10-10 19:03:24.686,2025-10-10 19:09:44.503,3 Ave & Schermerhorn St,4437.01,Washington Park,4546.05,40.68683208,-73.9796772,40.6917823,-73.9737299,member
FC00D4AD958F2AE6,electric_bike,2025-10-29 20:01:32.352,2025-10-29 20:09:23.377,Eagle St & Manhattan Ave,5902.07,Kent Ave & N 3 St,5348.06,40.735217,-73.954926,40.71797940978296,-73.96427449047715,member
5D27579B1D239BB7,electric_bike,2025-10-21 14:08:49.959,2025-10-21 14:24:33.514,E 163 St & Tiffany St,7927.08,2 Ave & E 122 St,7622.12,40.821075,-73.895069,40.8006721,-73.9349,member
B626FD393E2DF3A2,electric_bike,2025-10-10 16:50:32.963,2025-10-10 16:55:42.149,Lafayette St & E 8 St,5788.13,Sullivan St & Washington Sq,5721.01,40.73020660529954,-73.99102628231049,40.73047747,-73.99906065,member
10B811032254DDAD,electric_bike,2025-10-14 12:14:10.594,2025-10-14 12:22:27.204,W 84 St & Amsterdam Ave,7409.04,W 63 St & Broadway,7052.01,40.78621,-73.9756,40.77163851,-73.98261428,member
3B4C4D01DC51EF23,classic_bike,2025-10-24 13:26:27.940,2025-10-24 13:41:44.484,Gramercy Park N & Gramercy Park E,6013.12,W 42 St & 6 Ave,6517.08,40.73795,-73.98509,40.75492,-73.98455,member
B6B57FF502EF6180,electric_bike,2025-10-22 18:51:47.377,2025-10-22 19:02:03.732,Allen St & Hester St,5343.10,Cliff St & Fulton St,5065.14,40.71606,-73.99191,40.70838,-74.00495,member
8D643F6080CECDE5,classic_bike,2025-10-16 08:48:04.730,2025-10-16 08:54:45.786,Bank St & Washington St,5964.01,Pier 61 at Chelsea Piers,6233.04,40.7361967,-74.00859207,40.746872,-74.00821,member
6BB71D1149D6FCE8,electric_bike,2025-10-24 11:29:27.983,2025-10-24 11:38:55.314,Sterling Pl & 5 Ave,4208.01,West Drive & Prospect Park West,3651.04,40.678970070475735,-73.97855266928671,40.6610633719006,-73.97945255041122,member
ABB680EBD411F03B,electric_bike,2025-10-16 19:58:07.913,2025-10-16 20:09:21.281,Forsyth St & Grand St,5382.07,Willoughby St & Ashland Pl,4587.02,40.71779817737835,-73.99316132068634,40.69178,-73.97877,member
B53D8F0E7630A696,electric_bike,2025-10-02 18:14:17.424,2025-10-02 18:33:40.252,Calyer St & Jewel St,5743.02,Leonard St & Church St,5359.11,40.72984,-73.94839,40.717571,-74.005549,member
07AE6C72BE22F961,electric_bike,2025-10-04 17:47:45.688,2025-10-04 17:54:52.358,Devoe St & Morgan Ave,5282.02,Amory Ct & Metropolitan Ave,5217.03,40.713811,-73.93515,40.71301,-73.90968,member
982DF6318CB4EEEC,electric_bike,2025-10-07 16:43:07.512,2025-10-07 16:47:19.939,Pinehurst Ave & W 187 St,8458.03,W 181 St & Riverside Dr,8381.04,40.855331,-73.937878,40.85168,-73.94186,member
8EBBCCB336AFCB6B,electric_bike,2025-10-04 12:15:05.867,2025-10-04 12:19:02.019,Pacific St & Smith St,4446.03,Pacific St & Nevins St,4362.04,40.687880939612775,-73.98939281702042,40.6853761,-73.98302136,member
BC2D7E01A7D9C6B1,classic_bike,2025-10-09 22:11:42.951,2025-10-09 22:24:46.765,Eastern Pkwy & Brooklyn Ave,3871.02,Albany Ave & Carroll St,3791.02,40.66939,-73.94514,40.6667,-73.93972,member
B116C3EE0E4E8DD6,electric_bike,2025-10-17 15:31:39.181,2025-10-17 15:42:38.242,Manhattan Ave & Devoe St,5219.05,Graham Ave & Withers St,5403.04,40.713532,-73.9459867,40.7169811,-73.94485918,member
DB276B04B60C2839,electric_bike,2025-10-30 20:01:10.119,2025-10-30 20:05:38.444,Sterling Pl & 5 Ave,4208.01,Carlton Ave & Dean St,4199.12,40.678970070475735,-73.97855266928671,40.6809741,-73.9710097,casual
9548AC9AB8BC03C8,electric_bike,2025-10-09 22:18:36.290,2025-10-09 22:25:20.123,Degraw St & 3 Ave,4217.06,Fulton St & Clermont Ave,4386.05,40.67977,-73.9847,40.68415748,-73.96922273,member
C9A2C707226E639F,electric_bike,2025-10-24 11:36:10.103,2025-10-24 11:40:47.672,10 Ave & W 28 St,6459.04,W 22 St & 10 Ave,6306.06,40.75066386,-74.00176802,40.74691959,-74.00451887,member
C2A5D780AEC30FD8,electric_bike,2025-10-19 17:56:03.903,2025-10-19 18:04:27.087,Duffield St & Willoughby St,4596.05,5 Ave & 3 St,3987.06,40.69221589,-73.9842844,40.6728155,-73.98352355,member
BED1989345C2366A,electric_bike,2025-10-26 09:08:46.266,2025-10-26 09:12:20.739,11 Ave & W 59 St,7059.01,7 Ave & Central Park South,6912.01,40.77149671054441,-73.99046033620834,40.7667405590595,-73.9790689945221,member
5494CFC64F7A98A8,electric_bike,2025-10-16 17:37:05.922,2025-10-16 18:04:57.934,Morton St & Greenwich St,5772.05,Knickerbocker Ave & Thames St,5018.06,40.73115,-74.00887,40.70539,-73.92976,member
E51A9C7A2CA8417E,classic_bike,2025-10-10 10:21:39.720,2025-10-10 10:40:59.494,Greenwich St & Rector St,5073.07,Greenwich St & Rector St,5073.07,40.70806582380646,-74.0135595202446,40.70806582380646,-74.0135595202446,member
BE70FEAF17940DB0,electric_bike,2025-10-30 02:00:29.213,2025-10-30 02:05:10.012,Lenox Ave & W 111 St,7602.05,E 102 St & Park Ave,7488.24,40.7987859,-73.9523,40.7904828,-73.95033068,member
3D78D4FFB2E0FE67,electric_bike,2025-10-20 08:31:26.388,2025-10-20 08:42:20.510,Warren St & W Broadway,5288.09,E 16 St & 5 Ave,6022.04,40.71473993,-74.00910627,40.73726186,-73.99238967,member
C769D29D91314126,electric_bike,2025-10-14 19:38:50.374,2025-10-14 19:54:13.538,Smith St & 9 St,4077.04,Lincoln Pl & Classon Ave,3960.01,40.6746957,-73.99785768,40.6721683,-73.9609,member
029371988FA2D21F,classic_bike,2025-10-19 18:02:06.427,2025-10-19 18:11:23.960,W 31 St & 7 Ave,6331.01,Broadway & E 19 St,5980.11,40.749156,-73.9916,40.73829,-73.99006,member
04F85AD5C694A09C,electric_bike,2025-10-09 00:40:47.465,2025-10-09 01:41:27.633,Pike St & E Broadway,5270.05,E 7 St & Ave B,5584.05,40.71406667,-73.99293911,40.7251285241158,-73.98131668567657,member
0F7C08069B9D053C,electric_bike,2025-10-05 08:46:55.737,2025-10-05 09:01:50.976,E 14 St & Ave B,5736.09,Madison Ave & E 51 St,6659.09,40.72938685,-73.97772429,40.75863,-73.97513,casual
59C851171877B85D,electric_bike,2025-10-14 19:28:20.520,2025-10-14 19:37:32.207,W 36 St & 9 Ave,6569.07,Pier 61 at Chelsea Piers,6233.04,40.75462324029105,-73.99516761302948,40.746872,-74.00821,casual
0E11A841C348D865,classic_bike,2025-10-20 17:16:43.361,2025-10-20 17:22:51.576,E 93 St & 2 Ave,7286.02,E 88 St & 1 Ave,7235.13,40.782454175279874,-73.9489196240902,40.778301,-73.9488134,member
F6726D09722449D2,electric_bike,2025-10-11 16:35:30.000,2025-10-11 16:47:20.497,Dean St & Franklin Ave,4107.13,3 Ave & Carroll St,4143.04,40.67759206937376,-73.955637216568,40.677027,-73.9865,casual
416B9986622A68FF,classic_bike,2025-10-05 15:59:52.526,2025-10-05 16:18:29.184,Columbia St & Degraw St,4422.04,Centre St & Chambers St,5207.01,40.6859296,-74.00242364,40.71273266,-74.0046073,member
7CF22473CB464C27,electric_bike,2025-10-30 08:01:38.957,2025-10-30 08:07:46.335,36 Ave & 10 St,6737.03,28 St & 41 Ave,6462.19,40.7614376,-73.9411265,40.751047,-73.93797,casual
A97D1306A14C10A1,electric_bike,2025-10-30 17:10:38.423,2025-10-30 17:27:52.572,E 72 St & York Ave,6889.12,28 St & 41 Ave,6462.19,40.76663814,-73.95348296,40.751047,-73.93797,member
85984B7F0EACF359,electric_bike,2025-10-17 08:56:37.418,2025-10-17 08:59:26.699,31 Ave & 34 St,6819.15,Steinway St & Broadway,6711.13,40.763154,-73.920827,40.75905795418586,-73.91897544264793,member
D424230ABC93C637,electric_bike,2025-10-20 19:00:50.894,2025-10-20 19:06:35.999,Broadway & E 14 St,5905.12,Ave C & E 16 St,5769.06,40.73454567,-73.99074142,40.72984830346529,-73.97455215454102,member
95DF7DD21E8AA183,electric_bike,2025-10-30 14:19:00.556,2025-10-30 14:23:54.622,Schermerhorn St & Court St,4565.07,1 Pl & Clinton St,4193.14,40.6910363748993,-73.99201065301895,40.6809591,-73.99905709,member
648B8C59C2C3B55D,classic_bike,2025-10-26 14:51:35.992,2025-10-26 14:58:44.566,Carmine St & 6 Ave,5763.03,Watts St & Greenwich St,5578.02,40.73038599,-74.00214988,40.72405549,-74.00965965,member
1BDC0843C512974F,electric_bike,2025-10-30 13:54:29.662,2025-10-30 13:56:45.878,University Pl & E 8 St,5755.14,Broadway & E 14 St,5905.12,40.73143724085228,-73.99490341544151,40.73454567,-73.99074142,casual
6D428F765DA486C0,classic_bike,2025-10-31 19:06:12.683,2025-10-31 19:26:08.602,4 Ave & E 12 St,5788.15,E 5 St & Ave A,5626.06,40.732647,-73.99011,40.72479007746337,-73.98430064320564,casual
235BE0A51B692608,electric_bike,2025-10-02 15:36:50.781,2025-10-02 15:46:23.174,Allen St & Rivington St,5414.06,Clinton St & Grand St,5303.06_,40.72019576,-73.98997825,40.71573792143338,-73.98698994965027,member
BD1C97C2466F3504,electric_bike,2025-10-23 15:18:06.224,2025-10-23 15:25:32.112,Park Ave & E 42 St,6432.09,Broadway & W 37 St,6441.02,40.751873,-73.977706,40.75172632,-73.98753523,member
5F8A04726C5C97E5,classic_bike,2025-10-06 17:53:27.117,2025-10-06 17:58:29.061,Jay St & York St,4895.09,Main St & Plymouth St,4936.21,40.70140317257725,-73.98672670125961,40.703781673548306,-73.99073392152786,casual
2AFBCD0AB411DFC6,electric_bike,2025-10-11 18:58:49.929,2025-10-11 19:47:48.770,38 St & 30 Ave,6850.01,Pacific St & Troy Ave,4122.03,40.764174520197685,-73.91583994030952,40.67686,-73.93607,casual
A8E26DF9F0C491BB,classic_bike,2025-10-03 18:23:42.532,2025-10-03 18:30:29.413,E 1 St & 1 Ave,5593.01,LaGuardia Pl & W 3 St,5721.14,40.72335597960796,-73.98864984512329,40.72917025,-73.99810231,member
581B95BD3CBE9363,classic_bike,2025-10-01 09:54:49.366,2025-10-01 10:01:24.946,Franklin St & Dupont St,5944.01,Jackson Ave & 49 Ave,6170.09,40.73564,-73.95866,40.7429302,-73.952037,member
EA4795FF8B9A01B9,electric_bike,2025-10-22 08:18:17.417,2025-10-22 08:29:04.090,MacDougal St & Prince St,5687.04,W 37 St & Broadway,6441.06,40.72710258,-74.00297088,40.75227093837409,-73.98770570755005,member
41774A90DE37D0FE,electric_bike,2025-10-02 19:59:55.694,2025-10-02 20:29:56.935,Central Ave & Starr St,4792.03,Bedford Ave & Beverley Rd,3140.09,40.700003,-73.92834,40.64491,-73.95487,member
DD9ECB167F1B0526,classic_bike,2025-10-11 19:41:12.990,2025-10-11 19:43:53.588,Montague St & Hicks St,4718.11,Pierrepont St & Monroe Pl,4718.08,40.69522407512035,-73.99598850939152,40.69535693320225,-73.99344027042389,member
FA1F402AADB628D1,electric_bike,2025-10-29 07:54:45.381,2025-10-29 07:59:49.215,Greenwich St & Hubert St,5470.10,Centre St & Chambers St,5207.01,40.721319,-74.010065,40.71273266,-74.0046073,member
03C7EF315A5F8CBA,electric_bike,2025-10-05 14:09:57.391,2025-10-05 14:18:06.788,E 7 St & Ave A,5626.07,Orchard St & Grand St,5343.11,40.72621788,-73.98379855,40.717318403855785,-73.99067759513855,member
E4100079D93C2327,electric_bike,2025-10-31 22:10:41.768,2025-10-31 22:33:46.584,E 16 St & 5 Ave,6022.04,Water St & Gouverneur Ln,4993.15,40.73726186,-73.99238967,40.70469667894968,-74.00803416967392,casual
DE4097383EC75612,classic_bike,2025-10-16 19:56:53.692,2025-10-16 20:04:53.713,1 Ave & E 18 St,5854.09,E 14 St & Ave B,5736.09,40.733812191966315,-73.98054420948029,40.72938685,-73.97772429,member
0ACD620BA2A489B1,classic_bike,2025-10-14 07:03:15.914,2025-10-14 07:17:14.487,34 Ave & 89 St,6552.07,41 Ave & 67 St,6225.03,40.75437,-73.87833,40.74446,-73.89764,member
36BE4080E66AFF17,classic_bike,2025-10-20 10:13:55.044,2025-10-20 10:36:50.652,Bond St & Bergen St,4404.10,West St & Chambers St,5329.03,40.6849668,-73.98620772,40.71754834,-74.01322069,member
06885B18B0AB2080,electric_bike,2025-10-26 21:15:56.226,2025-10-26 21:24:36.155,1 Ave & E 68 St,6822.09,E 56 St & 3 Ave,6691.11,40.76500525,-73.95818491,40.75934501,-73.96759673,casual
DF3AFA5F00CBECD5,electric_bike,2025-10-09 07:50:38.857,2025-10-09 07:53:56.462,E 55 St & 2 Ave,6650.07,E 47 St & Park Ave,6584.12,40.75797322,-73.96603308,40.75510267,-73.97498696,member
B806C3D6E7647960,electric_bike,2025-10-25 12:36:46.996,2025-10-25 12:49:31.609,Norfolk St & Broome St,5374.01,Clinton St & Tillary St,4748.07,40.7172274,-73.98802084,40.69623297129315,-73.99142056703568,member
2DB174EF38CE7186,electric_bike,2025-10-10 23:12:13.025,2025-10-10 23:31:03.068,34 Ave & 31 St,6720.07,1 Ave & E 38 St,6230.02,40.759604471387945,-73.92714411020279,40.746202,-73.971822,member
6BED5FEF552D0BA4,classic_bike,2025-10-23 07:28:29.028,2025-10-23 07:35:26.453,New York Ave & Lenox Rd,3431.02,New York Ave & Lenox Rd,3431.02,40.65458,-73.94716,40.65458,-73.94716,member
434225392C0FC901,electric_bike,2025-10-17 10:00:26.457,2025-10-17 10:04:20.430,36 Ave & 31 St,6572.08,Steinway St & Broadway,6711.13,40.756540051858984,-73.929555582706,40.75905795418586,-73.91897544264793,member
1FC385B165881A5E,classic_bike,2025-10-15 17:09:12.666,2025-10-15 17:24:20.097,9 Ave & W 33 St,6492.08,W 64 St & Thelonious Monk Circle,7123.04,40.752568,-73.996765,40.77515953434235,-73.98918695747852,member
93F5FB02B13F7324,electric_bike,2025-10-13 08:43:34.041,2025-10-13 08:45:59.750,West St & Liberty St,5184.08,Fulton St & Broadway,5175.08,40.711444,-74.014847,40.711066,-74.009447,member
238B54CFB5E7E353,electric_bike,2025-10-02 05:43:32.234,2025-10-02 06:28:01.849,Franklin Ave & E 169 St,8118.02,E 27 St & 1 Ave,6004.06,40.83169292241844,-73.90210601220633,40.739445,-73.976806,member
74730699C783B546,classic_bike,2025-10-19 19:08:43.792,2025-10-19 19:13:42.113,Carroll St & Smith St,4225.14,Bond St & Bergen St,4404.10,40.680611,-73.99475825,40.6849668,-73.98620772,member
79C375181E4F8B04,electric_bike,2025-10-19 15:04:29.666,2025-10-19 15:15:10.318,S 4 St & Roebling St,5195.06,Greenpoint Ave & West St,5752.09,40.710709,-73.959724,40.729803,-73.959099,member
37B90E5E62DF9823,electric_bike,2025-10-18 14:11:17.086,2025-10-18 14:24:49.650,Broadway & Berry St,5164.05,E 13 St & 2 Ave,5820.08,40.71036129922581,-73.96530389785767,40.73153937464073,-73.9853024482727,member
89718BE88A2D67CA,classic_bike,2025-10-07 20:24:04.001,2025-10-07 20:44:45.004,E 17 St & 2 Ave,5896.01,Fulton St & William St,5137.11,40.73431166276575,-73.98372530937195,40.70960089363537,-74.00655090808868,member
8DFB5A01D48AA58C,classic_bike,2025-10-21 17:42:47.714,2025-10-21 17:47:17.942,Washington St & Gansevoort St,6039.06,W 13 St & 7 Ave,6030.04,40.739323,-74.008119,40.73781509,-73.99994661,member
29F2C60EA35521CF,electric_bike,2025-10-23 18:29:41.539,2025-10-23 18:36:46.498,W 42 St & 6 Ave,6517.08,E 48 St & 3 Ave,6541.03,40.75492,-73.98455,40.7546011026,-73.971878855,member
0DC56DF3F28037D1,electric_bike,2025-10-15 10:33:16.338,2025-10-15 10:43:28.198,W 21 St & 6 Ave,6140.05,W 30 St & 10 Ave,6459.07,40.74173969,-73.99415556,40.752694,-74.002353,member
01E36DA0530D6186,electric_bike,2025-10-15 22:29:50.411,2025-10-15 22:34:26.040,Isham St & Broadway,8665.09,Marble Hill Ave & W 227 St,8776.02,40.86788,-73.919685,40.87655,-73.90941,member
72A12B3BB03F2995,electric_bike,2025-10-17 13:20:32.080,2025-10-17 13:34:28.272,W 31 St & 7 Ave,6331.01,E 2 St & 2 Ave,5593.02,40.749156,-73.9916,40.72502876,-73.99069656,member
AA4F52A3CE8F95FF,classic_bike,2025-10-10 00:24:13.233,2025-10-10 00:33:31.706,8 Ave & W 31 St,6450.05,7 Ave S & Bleecker St,5805.07,40.7505853470215,-73.9946848154068,40.73213896287381,-74.00363802909851,member
4675C8D50A086FD4,electric_bike,2025-10-31 20:23:48.127,2025-10-31 20:41:14.641,University Pl & E 8 St,5755.14,Pearl St & Hanover Square,4993.02,40.73143724085228,-73.99490341544151,40.7047177,-74.00926027,member
27BDB9DE3FC48314,electric_bike,2025-10-10 02:23:57.812,2025-10-10 02:28:38.483,Adam Clayton Powell Blvd & W 126 St,7738.04,Adam Clayton Powell Blvd & W 138 St,7855.03,40.809495347779475,-73.94776493310928,40.81695971032464,-73.9422959089279,casual
AD931C99924DF098,electric_bike,2025-10-08 20:04:01.130,2025-10-08 20:19:31.388,Leonard St & Church St,5359.11,7 Ave S & Bleecker St,5805.07,40.717571,-74.005549,40.73213896287381,-74.00363802909851,casual
9489133E46AD3973,classic_bike,2025-10-28 17:57:55.983,2025-10-28 18:14:10.002,W 18 St & 6 Ave,6064.08,Howard St & Lafayette St,5422.04,40.73971301,-73.99456405,40.71910537,-73.99973337,member
56736CBA268103BB,electric_bike,2025-10-24 14:19:36.576,2025-10-24 14:31:11.518,E 39 St & Lexington Ave,6389.09,8 Ave & W 38 St,6526.05,40.749498546025194,-73.97729203113158,40.75461,-73.99177,casual
9D6A702CC763B1B7,electric_bike,2025-10-28 13:27:47.334,2025-10-28 13:36:27.083,E 3 St & Church Ave,3046.03,29 St & 5 Ave,3523.06,40.643817,-73.977433,40.656986,-73.998194,member
9CFB91EE84E1B621,electric_bike,2025-10-24 04:37:00.334,2025-10-24 04:39:36.685,Jackson Ave & 46 Rd,6203.02,11 St & 43 Ave,6438.05,40.74524768,-73.94733276,40.75177,-73.94821,member
0FB63AADD81EE98D,electric_bike,2025-10-31 17:29:48.084,2025-10-31 17:33:22.238,Cleveland Pl & Spring St,5492.05,Lafayette St & E 8 St,5788.13,40.722103786686034,-73.99724900722504,40.73020660529954,-73.99102628231049,member
4293B33471590AD3,electric_bike,2025-10-24 08:53:59.807,2025-10-24 08:59:05.686,E 16 St & 5 Ave,6022.04,8 Ave & W 24 St,6224.06,40.73726186,-73.99238967,40.74591072834279,-73.99807110428809,member
4223770773459C9E,classic_bike,2025-10-21 18:05:22.830,2025-10-21 18:09:41.891,E 19 St & 3 Ave,5938.01,Stuyvesant Walk & 1 Ave Loop,5854.1,40.73624527,-73.98473765,40.732339777151054,-73.97898383438587,member
E025DACB4DD218F1,electric_bike,2025-10-27 14:06:45.057,2025-10-27 14:14:13.211,Butler St & 27 Ave,6869.06,Roosevelt Ave & 104 St,6414.07,40.76521,-73.86483,40.74984,-73.86156,member
84F4D597206ED86D,electric_bike,2025-10-02 05:38:26.902,2025-10-02 05:44:55.454,W 41 St & 8 Ave,6602.03,W 27 St & 7 Ave,6257.06,40.75640548,-73.9900262,40.74665,-73.99392,member
821E9CC6A052FF9A,classic_bike,2025-10-30 19:05:34.614,2025-10-30 19:24:59.251,Fulton St & Waverly Ave,4345.11,Hancock St & Stuyvesant Ave,4383.06,40.683238654603414,-73.96599590778351,40.68454,-73.9322,member
0D80E02533586C4E,electric_bike,2025-10-22 15:28:19.883,2025-10-22 15:48:22.678,Emerson Pl & Myrtle Ave,4683.02,Delancey St & Eldridge St,5414.07,40.69363137,-73.96223558,40.719383,-73.991479,member
EDDEBAB098196032,electric_bike,2025-10-01 19:28:35.585,2025-10-01 19:32:49.682,87 St & Roosevelt Ave,6356.01,34 Ave & 89 St,6552.07,40.74825,-73.87936,40.75437,-73.87833,casual
5A6459D665CD99F9,electric_bike,2025-10-16 08:06:38.001,2025-10-16 08:18:55.693,5 Ave & E 103 St,7511.19,Columbus Ave & W 59 St,6986.07,40.7922553,-73.95249933,40.76931,-73.98464,member
53F3A400291FBCC8,electric_bike,2025-10-30 18:53:19.033,2025-10-30 19:01:33.724,Sharon St & Olive St,5323.06,Irving Ave & Jefferson St,5051.02,40.715341620424475,-73.93865078687668,40.70538,-73.92535,casual
C8D164725E5D3956,electric_bike,2025-10-20 16:54:25.928,2025-10-20 16:55:58.387,W 34 St & Hudson Blvd E,6535.04,W 34 St & Hudson Blvd E,6535.04,40.75516719072139,-74.00059908628464,40.75516719072139,-74.00059908628464,casual
15923E22A1271052,electric_bike,2025-10-24 20:08:02.702,2025-10-24 20:26:09.088,Montague St & Clinton St,4677.06,S 4 St & Wythe Ave,5204.05,40.6942715,-73.9923272,40.71285887,-73.96590294,member
6C76AAF0B5E0363D,electric_bike,2025-10-17 12:45:30.630,2025-10-17 12:52:46.650,Broadway & W 153 St,8089.05,St Nicholas Ave & W 126 St,7756.10,40.831327,-73.946665,40.8114323,-73.9518776,member
7DA6B462D6D07506,electric_bike,2025-10-06 18:16:49.629,2025-10-06 18:27:11.356,Greenpoint Ave & Manhattan Ave,5785.05,43 St & 50 Ave,5983.04,40.73026,-73.95394,40.73787237950538,-73.92264068126678,member
C2E28601AC4BC6EC,classic_bike,2025-10-28 20:16:39.303,2025-10-28 20:18:21.319,University Pl & E 8 St,5755.14,Lafayette St & E 8 St,5788.13,40.73143724085228,-73.99490341544151,40.73020660529954,-73.99102628231049,member
D6E44FD63583EE90,electric_bike,2025-10-04 13:44:40.485,2025-10-04 13:51:13.657,W 11 St & 6 Ave,5914.03,Sullivan St & Washington Sq,5721.01,40.73532427,-73.99800419,40.73047747,-73.99906065,casual
3FC54005BF4C9084,electric_bike,2025-10-05 16:50:14.449,2025-10-05 16:55:57.470,Lafayette St & Jersey St,5561.06,W 13 St & 5 Ave,5947.04,40.72456089,-73.99565293,40.735445,-73.99431,member
EF13A8E5C5AF70F4,classic_bike,2025-10-02 10:44:20.219,2025-10-02 10:49:17.755,Graham Ave & Grand St,5178.06,Bayard St & Leonard St,5442.05,40.711863,-73.944024,40.71915571696044,-73.94885390996933,member
DD636A704F590816,classic_bike,2025-10-09 17:36:57.923,2025-10-09 17:42:25.260,Berkeley Pl & 6 Ave,4134.06,7 Ave & Park Pl,4125.07,40.6765304,-73.97846879,40.6776147,-73.97324283,member
8EDF63D9594458B0,electric_bike,2025-10-01 00:37:51.244,2025-10-01 00:45:06.347,E 157 St & River Ave,8005.03,Westchester Ave & Longwood Ave,7909.07,40.825737,-73.927311,40.819701,-73.901311,member
B8B91B8BAF1C3EC3,classic_bike,2025-10-24 03:28:42.556,2025-10-24 04:19:02.040,W 51 St & 7 Ave,6779.07,Adam Clayton Powell Blvd & W 138 St,7855.03,40.76167,-73.98256,40.81695971032464,-73.9422959089279,casual
9537BB8A0C5FCF4C,electric_bike,2025-10-25 11:08:17.195,2025-10-25 11:19:40.085,Kent Ave & Grand St,5388.01,Front St & Gold St,4927.04,40.716425,-73.96594,40.70224,-73.982578,member
D2CA54914D7488D1,electric_bike,2025-10-06 15:45:43.886,2025-10-06 15:54:28.225,W 36 St & 9 Ave,6569.07,W 44 St & 5 Ave,6551.02,40.75462324029105,-73.99516761302948,40.75500254,-73.98014437,member
C9E8AE56FE16B43D,electric_bike,2025-10-11 19:29:33.150,2025-10-11 19:35:51.368,E 5 St & Cooper Sq,5712.12,Sullivan St & Washington Sq,5721.01,40.72769,-73.990993,40.73047747,-73.99906065,member
6CC2EC3910814661,classic_bike,2025-10-16 04:56:24.607,2025-10-16 05:03:40.085,Crotona Park North & Prospect Ave,8236.01,Boston Rd & Prospect Ave,8133.08,40.841092,-73.892317,40.833246,-73.896599,member
728555816831DD7F,electric_bike,2025-10-18 14:41:51.692,2025-10-18 14:44:49.878,Columbus Ave & W 59 St,6986.07,Columbus Ave & W 59 St,6986.07,40.76931,-73.98464,40.76931,-73.98464,casual
2C4899E51326B6D7,electric_bike,2025-10-11 22:47:38.440,2025-10-12 02:54:11.139,Grand Concourse & E 164 St,8057.02,E 170 St & Clay Ave,,40.829608,-73.921461,,,casual
9E7BC4E7CA4DCCE8,electric_bike,2025-10-22 18:54:01.471,2025-10-22 18:59:10.141,Grand Concourse & E 167 St,8126.07,E 169 St & Webster Ave,8122.04,40.834263,-73.917641,40.834015,-73.908863,member
CF44056F9A1355E5,electric_bike,2025-10-23 17:07:59.723,2025-10-23 17:33:26.608,Murray St & West St,5329.08,N 10 St & Berry St,5450.01,40.71503,-74.01246,40.720253,-73.957082,member
33DF2AF5C6EAAF1E,classic_bike,2025-10-04 07:59:10.256,2025-10-04 08:01:58.689,Clinton St & Tillary St,4748.07,Concord St & Bridge St,4781.03,40.69623297129315,-73.99142056703568,40.69766564,-73.98476437,member
83BF55D669C83C6F,classic_bike,2025-10-16 14:21:34.472,2025-10-16 14:28:47.915,St Marks Pl & 2 Ave,5669.10,Allen St & Stanton St,5484.09,40.7284186,-73.98713956,40.722055,-73.989111,casual
4B52973F08010228,electric_bike,2025-10-29 17:31:49.137,2025-10-29 17:44:47.502,Rutgers St & Henry St,5230.02,Kent Ave & N 3 St,5348.06,40.71332151208186,-73.99009689688683,40.71797940978296,-73.96427449047715,member
E3932B4ED0819776,classic_bike,2025-10-31 14:06:50.445,2025-10-31 14:16:33.365,E 10 St & Ave A,5659.05,E 26 St & 3 Ave,6089.11,40.72740794,-73.98142006,40.74069317733043,-73.98160636425018,member
C98354C8FA070B1A,electric_bike,2025-10-03 13:27:54.423,2025-10-03 13:55:54.934,W 41 St & 8 Ave,6602.03,5 Ave & E 78 St,7161.08,40.75640548,-73.9900262,40.77632142182271,-73.96427392959595,casual
421EA9332DE92024,classic_bike,2025-10-09 15:41:00.256,2025-10-09 15:47:16.740,E 5 St & Ave A,5626.06,Lafayette St & Jersey St,5561.06,40.72479007746337,-73.98430064320564,40.72456089,-73.99565293,member
526CE3884D744E60,electric_bike,2025-10-22 08:32:43.251,2025-10-22 08:37:54.781,Clinton St & Union St,4266.03,Fulton St & Adams St,4637.06,40.6831164,-73.99785267,40.692418292578466,-73.98949474096298,member
274D1C98EEA6240A,electric_bike,2025-10-09 19:35:43.563,2025-10-09 19:50:55.274,S 3 St & Bedford Ave,5235.05,Lafayette Ave & Franklin Ave,4528.03,40.71260486,-73.96264403,40.689271,-73.957324,member
0D7A16F1A6857226,electric_bike,2025-10-27 22:58:26.971,2025-10-27 23:00:33.857,Amsterdam Ave & W 79 St,7311.02,Amsterdam Ave & W 82 St,7360.10,40.7829391,-73.9786517,40.78524672,-73.97667321,member
90D9983AA4ECB0E0,electric_bike,2025-10-27 14:09:33.308,2025-10-27 14:15:15.099,Centre St & Seneca Ave,4837.03,Menahan St & Onderdonk Ave,5034.03,40.69969,-73.9022,40.70553,-73.9096,member
27BCF1EE69086DF9,electric_bike,2025-10-10 15:37:43.891,2025-10-10 15:47:53.226,Cleveland Pl & Spring St,5492.05,E 14 St & 1 Ave,5779.10,40.722103786686034,-73.99724900722504,40.73139303364151,-73.98286700248718,casual
460FEC9CD2A1E536,classic_bike,2025-10-19 18:05:55.949,2025-10-19 18:12:12.248,Wyckoff Ave & Gates Ave,4847.03,Central Ave & Woodbine St,4632.10,40.699871408829885,-73.91171872615814,40.69296,-73.91605,member
DBE21FC61C825224,classic_bike,2025-10-04 22:29:24.057,2025-10-04 22:57:10.996,Emerson Pl & Myrtle Ave,4683.02,Nassau St & Duffield St,4781.05,40.69363137,-73.96223558,40.698477,-73.98384,casual
01B14991A12FB9C5,electric_bike,2025-10-23 12:49:37.432,2025-10-23 12:54:55.448,E 88 St & Park Ave,7293.10,E 72 St & Park Ave,6998.08,40.781410700190015,-73.95595908164978,40.77118287540658,-73.96409422159195,member
0F90038F415E9290,electric_bike,2025-10-21 19:47:48.080,2025-10-21 20:01:44.949,W 20 St & 8 Ave,6224.05,Rivington St & Ridge St,5406.02,40.74345335,-74.00004031,40.71850211,-73.98329859,member
DC1F9E53A12030D5,classic_bike,2025-10-06 19:18:17.574,2025-10-06 19:40:06.443,W 52 St & 11 Ave,6926.01,West St & Chambers St,5329.03,40.76727216,-73.99392888,40.71754834,-74.01322069,member
1228A95E4111C22E,electric_bike,2025-10-19 19:40:44.677,2025-10-19 19:54:40.550,Suydam St & Broadway,4689.03,Carlton Ave & Dean St,4199.12,40.69544,-73.93223,40.6809741,-73.9710097,member
979C08CF9CCEFEE6,electric_bike,2025-10-06 22:31:01.257,2025-10-06 22:41:52.869,Schermerhorn St & Hoyt St,4479.10,6 Ave & 9 St,3803.09,40.6886263,-73.9851911,40.668127,-73.98377641,member
E99F6F25445AF764,classic_bike,2025-10-28 08:54:54.225,2025-10-28 09:01:27.648,St Marks Pl & 1 Ave,5626.13,E 17 St & Broadway,5980.10,40.72779126,-73.98564945,40.737006,-73.990134,member
642BEC787D8A2CBB,electric_bike,2025-10-05 13:54:36.620,2025-10-05 14:06:59.132,Astoria Park S & Shore Blvd,7159.08,27 St & Hunter St,6310.06,40.7767,-73.927631,40.7485,-73.941275,casual
783A8830DC7B4A6A,classic_bike,2025-10-03 23:45:37.278,2025-10-03 23:48:56.525,55 St & Northern Blvd,6502.01,51 St & Hobart St,6662.09,40.75326,-73.90585,40.75767234025041,-73.90769943594933,member
C29BA956A796DC44,electric_bike,2025-10-05 12:11:54.406,2025-10-05 12:18:55.867,6 Ave & Walker St,5430.10,Great Jones St,5636.11,40.7197920901383,-74.0052238852195,40.72743423,-73.99379025,member
55D42AB2B6AA6EAE,classic_bike,2025-10-13 21:26:01.611,2025-10-13 21:46:29.031,1 Ave & E 30 St,6079.03,E 81 St & York Ave,7084.12,40.74144387,-73.97536082,40.7728384,-73.94989233,member
7EB1B1C904BFFF50,electric_bike,2025-10-29 07:50:27.010,2025-10-29 08:19:19.864,Riverside Blvd & W 67 St,7183.03,Albany St & Greenwich St,5145.02,40.777507027547976,-73.98888587951659,40.709267,-74.013247,member
4174F45A91163645,electric_bike,2025-10-02 19:59:12.517,2025-10-02 20:08:19.276,Kent Ave & N 7 St,5489.03,Metropolitan Ave & Meeker Ave,5300.05,40.72036775298455,-73.96165072917938,40.71413311,-73.95234386,member
F105B4702CAAF14C,electric_bike,2025-10-19 18:02:38.560,2025-10-19 18:16:52.733,W 54 St & 9 Ave,6920.05,3 Ave & E 72 St,7028.04,40.76604,-73.98737,40.7699426,-73.96060712,member
ED772ED45A93BF2D,electric_bike,2025-10-30 06:25:46.266,2025-10-30 06:49:34.720,1 Ave & E 30 St,6079.03,Pleasant Ave & E 116 St,7540.05,40.74144387,-73.97536082,40.79499,-73.93333,member
35CA7CBB7166DAC5,classic_bike,2025-10-06 14:49:58.613,2025-10-06 15:57:43.436,Central Park North & Adam Clayton Powell Blvd,7617.07,Broadway & W 58 St,6948.10,40.799484,-73.955613,40.76695317,-73.98169333,casual
2CD13976CADEC330,electric_bike,2025-10-23 15:23:58.157,2025-10-23 15:30:02.332,6 Ave & W 33 St,6364.07,W 44 St & 5 Ave,6551.02,40.74901271,-73.98848395,40.75500254,-73.98014437,member
5609FA4BB0DB788E,classic_bike,2025-10-04 10:54:34.521,2025-10-04 11:00:27.629,W 111 St & 5 Ave,7587.16,Central Park North & Adam Clayton Powell Blvd,7617.07,40.79752078124755,-73.9489397406578,40.799484,-73.955613,member
9A792B0840074A76,electric_bike,2025-10-02 09:18:20.112,2025-10-02 09:32:50.609,Riverside Blvd & W 67 St,7183.03,9 Ave & W 18 St,6190.08,40.777507027547976,-73.98888587951659,40.74317449,-74.00366443,member
D282AB764AA866F3,electric_bike,2025-10-19 08:11:45.440,2025-10-19 08:15:27.115,W 50 St & 10 Ave,6890.06,Amsterdam Ave & W 66 St,7149.05,40.764734200065185,-73.99194359779358,40.7746671,-73.98470567,member
0B67B132A0FE6D0C,electric_bike,2025-10-25 15:41:46.554,2025-10-25 15:48:44.879,Watts St & Greenwich St,5578.02,Greenwich Ave & Charles St,5914.08,40.72405549,-74.00965965,40.735238,-74.000271,member
1DFB2939CBBFF819,electric_bike,2025-10-29 14:55:01.873,2025-10-29 15:02:44.798,Clermont Ave & Park Ave,4692.01,Broadway & Kent Ave,5134.09,40.69573398,-73.97129668,40.710888,-73.968329,casual
2C0F81CA1873305C,electric_bike,2025-10-31 21:38:24.502,2025-10-31 21:41:03.846,W 27 St & 6 Ave,6215.07,W 29 St & 9 Ave,6416.06,40.74526,-73.99062,40.7500727,-73.99839279,member
6B99277B967ECDF0,electric_bike,2025-10-23 18:40:10.452,2025-10-23 18:49:34.887,Cauldwell Ave & E 161 St,7952.02,Boston Rd & West Farms Rd,8212.01,40.82188,-73.907521,40.83998,-73.8806,member
431A52FB112AED07,electric_bike,2025-10-14 17:36:00.024,2025-10-14 17:46:18.646,Liberty St & Broadway,5105.01,Barrow St & Hudson St,5805.05,40.70905623,-74.01043382,40.73172428,-74.00674436,member
1D9A43B66E7E55AD,electric_bike,2025-10-09 18:25:50.217,2025-10-09 18:28:59.522,W 67 St & Broadway,7116.04,West End Ave & W 60 St,7059.08,40.77492513,-73.98266566,40.77237,-73.99005,member
441AC9F814BB2B8B,classic_bike,2025-10-15 18:57:24.590,2025-10-15 19:00:17.779,Sterling St & Bedford Ave,3665.06,Sterling St & Nostrand Ave,3657.06,40.6627059,-73.9569115,40.66318,-73.95076,member
F93E97D491D8A25E,electric_bike,2025-10-24 18:06:15.836,2025-10-24 18:08:58.127,8 Ave & W 24 St,6224.06,10 Ave & W 28 St,6459.04,40.74591072834279,-73.99807110428809,40.75066386,-74.00176802,member
4D6EBC198DB6F4CA,classic_bike,2025-10-17 18:02:22.869,2025-10-17 18:08:12.321,Madison Ave & E 99 St,7443.01,E 93 St & 2 Ave,7286.02,40.78948541553215,-73.95242929458618,40.782454175279874,-73.9489196240902,member
1A873D81ECF386B7,electric_bike,2025-10-26 16:27:49.119,2025-10-26 16:48:13.768,Broadway & W 38 St,6560.15,Bayard St & Baxter St,5351.03,40.7529728216068,-73.98734897375107,40.71602118,-73.99974372,member
F06697EF0FD1B19F,classic_bike,2025-10-13 16:23:34.628,2025-10-13 16:46:43.190,10 Ave & W 14 St,6157.04,Thompson St & Bleecker St,5721.07,40.741981599940225,-74.00831580162048,40.72840059450829,-73.99968780577183,member
318FA042012493E4,classic_bike,2025-10-19 15:47:36.458,2025-10-19 16:11:06.204,Leonard St & Maujer St,5148.03,Davis St & Jackson Ave,6278.05,40.7103685423523,-73.94705951213837,40.745627,-73.945661,member
E643783DAB72579A,electric_bike,2025-10-26 13:12:17.559,2025-10-26 13:19:23.411,Bushwick Ave & Powers St,5250.05,Nassau Ave & Newell St,5623.03,40.71247661,-73.94100005,40.724812564400175,-73.94752621650696,casual
E5C06E105B4218DB,classic_bike,2025-10-28 18:06:05.582,2025-10-28 18:10:10.020,Dean St & Hoyt St,4446.05,3 Ave & Schermerhorn St,4437.01,40.6864442,-73.98759104,40.68683208,-73.9796772,member
A8C39942BD8D72C6,electric_bike,2025-10-04 14:26:49.573,2025-10-04 14:33:27.227,Mott St & Prince St,5561.04,Suffolk St & Stanton St,5445.02,40.72317958,-73.99480012,40.72066442,-73.98517977,member
2FED9B58801821B3,electric_bike,2025-10-30 12:50:32.647,2025-10-30 12:54:40.197,E 25 St & 1 Ave,6004.07,Madison Ave & E 26 St,6131.12,40.7381765,-73.97738662,40.742684734875695,-73.98671329021454,member
31ADABDF7DF3D41E,electric_bike,2025-10-04 15:06:39.828,2025-10-04 15:28:28.148,Broadway & W 25 St,6173.08,Riverside Dr & W 72 St,7288.04,40.74286877312112,-73.98918628692627,40.78057799010334,-73.98562431335449,member
98788CDD384CC727,classic_bike,2025-10-27 11:46:53.427,2025-10-27 11:55:43.522,E 33 St & 5 Ave,6322.01,W 13 St & 5 Ave,5947.04,40.74765947,-73.98490707,40.735445,-73.99431,member
148F0F360F0D4E3A,electric_bike,2025-10-19 14:31:47.664,2025-10-19 14:42:10.690,Warren St & Court St,4413.08,Grand Army Plaza & Plaza St West,4010.15,40.686371,-73.99383324,40.6729679,-73.97087984,casual
0C560FB32FF71C80,electric_bike,2025-10-26 14:18:43.625,2025-10-26 15:25:55.405,Central Ave & Covert St,4550.05,Fulton St & Clermont Ave,4386.05,40.68929,-73.90951,40.68415748,-73.96922273,casual
852955F13C9CF88D,electric_bike,2025-10-08 14:10:35.788,2025-10-08 14:17:42.483,Spring St & Hudson St,5653.12,River Ter & Warren St,5368.03,40.72583996792375,-74.0076532959938,40.71759894980997,-74.01587963104248,member
6587C1DEB7CCCEB3,electric_bike,2025-10-18 10:00:25.862,2025-10-18 10:23:01.808,Prospect Park SW & 10 Ave,3611.02,Clark St & Henry St,4789.03,40.659945,-73.977504,40.69760127,-73.99344559,member
08690F0753D20E47,electric_bike,2025-10-18 10:05:32.691,2025-10-18 10:13:26.411,Nassau Ave & Russell St,5581.01,S 4 St & Wythe Ave,5204.05,40.72557,-73.94434,40.71285887,-73.96590294,member
5AFBF21123792504,electric_bike,2025-10-07 07:19:58.887,2025-10-07 08:18:33.494,W 45 St & 8 Ave,6676.02,Washington Pl & Broadway,5755.01,40.75929124,-73.98859651,40.72903917,-73.99404649,casual
1B2DD860685871DA,electric_bike,2025-10-31 19:15:55.903,2025-10-31 19:22:55.996,Carlton Ave & Greene Ave,4386.07,Grand Ave & Bergen St,4190.06,40.685957,-73.971468,40.678045,-73.962408,member
0B91DF99A649A4DC,electric_bike,2025-10-24 19:07:08.428,2025-10-24 19:14:21.127,E 58 St & 3 Ave,6762.02,E 85 St & 3 Ave,7212.05,40.76095756,-73.96724467,40.77801203,-73.95407149,member
85E84B01B6F88043,classic_bike,2025-10-02 13:00:43.136,2025-10-02 13:07:45.976,Jerome Ave & W 193 St,8619.02,W Fordham Rd & Loring Pl N,8590.01,40.86659,-73.89794,40.86295,-73.90741,member
1C1FC7124D8C5760,classic_bike,2025-10-28 20:10:11.468,2025-10-28 20:15:05.167,Berkeley Pl & 6 Ave,4134.06,Bergen St & 4 Ave,4322.06,40.6765304,-73.97846879,40.68256425759694,-73.9798977971077,member
EAC98551577F2BB7,electric_bike,2025-10-22 21:25:40.710,2025-10-22 21:54:05.597,W 41 St & 8 Ave,6602.03,Eagle St & Manhattan Ave,5902.07,40.75640548,-73.9900262,40.735217,-73.954926,member
020879625A34C808,electric_bike,2025-10-24 20:05:09.340,2025-10-24 20:07:57.352,51 St & 43 Ave,6242.10,44 St & Greenpoint Ave,6134.13,40.74451,-73.91412,40.741119944681465,-73.92103672027588,member
5A35D4E8DF87C265,electric_bike,2025-10-15 19:32:16.913,2025-10-15 19:39:50.615,E 24 St & Park Ave S,6131.1,W 22 St & 10 Ave,6306.06,40.74096374,-73.98602213,40.74691959,-74.00451887,member
1741BF85EB9DC496,electric_bike,2025-10-27 21:04:04.506,2025-10-27 21:16:26.495,Lafayette St & E 8 St,5788.13,Hudson St & N Moore St,5470.13,40.73020660529954,-73.99102628231049,40.719887998,-74.0086269379,member
292E680521288AE4,electric_bike,2025-10-15 07:15:14.213,2025-10-15 07:33:24.637,Tilden Ave & Lott St,3214.04,Hanson Pl & Ashland Pl,4395.07,40.64661,-73.95401,40.68506807308177,-73.97790759801863,casual
2B7B2F1DA55637E3,classic_bike,2025-10-30 21:06:14.398,2025-10-30 21:18:32.844,W 56 St & 8 Ave,6884.03,2 Ave & E 72 St,6925.09,40.765959181657976,-73.98313522338867,40.7687620293096,-73.95840793848038,member
5F43162F84DB9F8E,electric_bike,2025-10-16 17:20:23.065,2025-10-16 17:33:17.547,E 53 St & Madison Ave,6659.03,E 11 St & 1 Ave,5746.14,40.7597108,-73.97402311,40.72953837,-73.98426726,member
955700EEB0ECDFBE,electric_bike,2025-10-22 15:41:43.624,2025-10-22 15:50:52.570,Christopher St & Greenwich St,5847.01,W 22 St & 10 Ave,6306.06,40.73291553,-74.00711384,40.74691959,-74.00451887,casual
B2C06A8A68F61380,electric_bike,2025-10-28 19:29:38.096,2025-10-28 19:42:31.231,Prospect Pl & Vanderbilt Ave,4157.15,Brooklyn Ave & Dean St,4131.03,40.67767534,-73.96902144,40.67669,-73.94437,member
2E2C8CA97A1407A9,classic_bike,2025-10-01 11:12:25.300,2025-10-01 11:15:22.445,Frederick Douglass Blvd & W 117 St,7688.12,Frederick Douglass Blvd & W 112 St,7631.23,40.805159,-73.954692,40.801694,-73.957145,member
E8348DE342C7C9F8,electric_bike,2025-10-25 06:53:16.182,2025-10-25 06:58:47.519,Popham Ave & W 174 St,8348.02,W 186 St & St Nicholas Ave,8416.10,40.847746,-73.922079,40.852253,-73.931308,member
B38B9B466EA9CD29,electric_bike,2025-10-25 09:31:36.128,2025-10-25 09:37:09.653,Union Ave & N 12 St,5411.07,Scholes St & Manhattan Ave,5108.01,40.71924,-73.95242,40.70870368,-73.9448625,member
E1A74055032DDDD9,classic_bike,2025-10-08 15:19:30.106,2025-10-08 15:23:23.833,Greenwich Ave & Charles St,5914.08,Gansevoort St & Hudson St,6072.16,40.735238,-74.000271,40.73937600789778,-74.00520807425661,member
A3C4896D4554E912,electric_bike,2025-10-05 18:16:44.964,2025-10-05 18:40:46.885,Parkside Ave & Flatbush Ave,3480.04,Lexington Ave & Stuyvesant Ave,4500.07,40.65563,-73.95968,40.68973,-73.93353,member
48F2A58320EF4B06,classic_bike,2025-10-18 11:29:39.753,2025-10-18 11:31:20.568,Bushwick Ave & Forrest St,4914.03,Beaver St & Fayette St,4840.06,40.70076,-73.93641,40.70099,-73.93921,member
FF8D08EC10E0118E,classic_bike,2025-10-09 18:23:06.103,2025-10-09 18:37:18.639,E 25 St & 1 Ave,6004.07,E 4 St & Ave B,5515.08,40.7381765,-73.97738662,40.723346832180155,-73.98265913128853,casual
8DBD226D9E557645,classic_bike,2025-10-09 08:58:43.581,2025-10-09 09:04:36.607,E 27 St & 1 Ave,6004.06,E 33 St & 5 Ave,6322.01,40.739445,-73.976806,40.74765947,-73.98490707,member
99639A7A0A09D49B,classic_bike,2025-10-14 16:45:11.824,2025-10-14 17:14:40.647,Christopher St & Greenwich St,5847.01,5 Ave & E 72 St,7100.07,40.73291553,-74.00711384,40.77282817,-73.96685276,member
1F7DCFF6D7513B6D,electric_bike,2025-10-22 18:26:10.703,2025-10-22 18:30:50.607,Engert Ave & McGuinness Blvd,5473.03,N 12 St & Bedford Ave,5450.04,40.72158,-73.94546,40.72079821,-73.95484712,member
3194C880729C7DCB,electric_bike,2025-10-07 17:09:01.737,2025-10-07 17:17:27.839,Adam Clayton Powell Blvd & W 123 St,7704.04,Broadway & W 122 St,7783.18,40.8078316,-73.949373,40.8120562,-73.9612547,casual
F06B3BF4E435EC02,classic_bike,2025-10-24 12:12:59.596,2025-10-24 12:15:14.825,Greene Ave & Nostrand Ave,4519.02,Marcy Ave & Gates Ave,4401.04,40.6883337,-73.950916,40.686679,-73.947417,member
2E114F5B4761F089,classic_bike,2025-10-23 21:00:28.412,2025-10-23 21:11:47.913,W 41 St & 8 Ave,6602.03,Washington St & Gansevoort St,6039.06,40.75640548,-73.9900262,40.739323,-74.008119,member
6CA963A627A8B372,electric_bike,2025-10-13 09:20:27.308,2025-10-13 09:26:44.649,E 43 St & Madison Ave,6551.11,8 Ave & W 38 St,6526.05,40.75354681867074,-73.97896572947502,40.75461,-73.99177,member
DCDE64E42E4BD1B7,classic_bike,2025-10-02 05:40:01.879,2025-10-02 05:47:46.688,E 72 St & York Ave,6889.12,E 72 St & Park Ave,6998.08,40.76663814,-73.95348296,40.77118287540658,-73.96409422159195,member
15E1A54681464094,electric_bike,2025-10-16 12:57:42.111,2025-10-16 13:04:15.786,E 15 St & 3 Ave,5863.07,E 25 St & 1 Ave,6004.07,40.734232,-73.986923,40.7381765,-73.97738662,member
4C09E3A533E98FDD,classic_bike,2025-10-14 09:02:03.650,2025-10-14 09:11:53.104,W 20 St & 10 Ave,6306.01,E 16 St & 5 Ave,6022.04,40.745686,-74.005141,40.73726186,-73.99238967,member
00DBADA9F77A50E4,electric_bike,2025-10-03 13:54:55.711,2025-10-03 14:44:00.950,W 120 St & Claremont Ave,7745.07,W 104 St & Amsterdam Ave,7610.13,40.8109494,-73.9634,40.799041392882984,-73.96649479866028,member
ADF5B771020F1D34,electric_bike,2025-10-22 08:36:38.679,2025-10-22 08:58:02.438,Brooklyn Ave & Dean St,4131.03,Nassau Ave & Newell St,5623.03,40.67669,-73.94437,40.724812564400175,-73.94752621650696,member
4404D4A2FB04500E,electric_bike,2025-10-01 14:49:34.725,2025-10-01 14:54:56.310,West End Ave & W 94 St,7524.09,W 84 St & Amsterdam Ave,7409.04,40.7941654,-73.974124,40.78621,-73.9756,casual
BB89D5A3EF911C39,classic_bike,2025-10-08 18:00:18.298,2025-10-08 18:09:54.992,Murray St & Greenwich St,5288.12,LaGuardia Pl & W 3 St,5721.14,40.71485150526251,-74.01122331619263,40.72917025,-73.99810231,member
D6CB5AEC619857D8,electric_bike,2025-10-20 00:43:19.081,2025-10-20 01:10:55.634,W 55 St & 6 Ave,6809.09,W 55 St & 6 Ave,6809.09,40.763189,-73.978434,40.763189,-73.978434,casual
6201F26E39C7126E,electric_bike,2025-10-26 00:17:34.840,2025-10-26 00:21:08.477,S 4 St & Roebling St,5195.06,Driggs Ave & N 9 St,5411.08,40.710709,-73.959724,40.71816969454208,-73.95520135760307,member
03EBF88FDF3CA553,electric_bike,2025-10-06 16:46:57.107,2025-10-06 17:01:21.833,Winthrop St & Nostrand Ave,3544.02,14 St & 7 Ave,3731.11,40.65707,-73.95005,40.663779,-73.98396846,member
84EF1683F7480B15,classic_bike,2025-10-01 18:05:21.994,2025-10-01 18:14:43.062,Gansevoort St & Hudson St,6072.16,Watts St & Greenwich St,5578.02,40.73937600789778,-74.00520807425661,40.72405549,-74.00965965,member
B61E3325144CA26A,electric_bike,2025-10-01 12:16:05.074,2025-10-01 12:22:43.381,W 74 St & Columbus Ave,7230.10,W 56 St & 6 Ave,6809.07,40.7785669,-73.97754961,40.76340613,-73.97722479,member
24B0B066E752321D,electric_bike,2025-10-05 17:47:15.719,2025-10-05 17:57:27.849,E 33 St & 1 Ave,6197.08,Lafayette St & Jersey St,5561.06,40.74322681432173,-73.97449783980846,40.72456089,-73.99565293,casual
20D4F874661568CD,electric_bike,2025-10-22 22:10:57.708,2025-10-22 22:22:18.125,W 52 St & 11 Ave,6926.01,8 Ave & W 27 St,6297.07,40.76727216,-73.99392888,40.747968,-73.996637,member
AA6DB486C5B33F4B,electric_bike,2025-10-08 17:47:35.140,2025-10-08 17:53:16.803,5 Ave & E 72 St,7100.07,Central Park W & W 68 St,7079.06,40.77282817,-73.96685276,40.7734066,-73.97782542,casual
BDF5FB7B04AFFAB8,electric_bike,2025-10-10 20:39:50.144,2025-10-10 20:52:33.462,Kosciuszko St & Tompkins Ave,4553.04,Sands St Gate,4812.04,40.69128258,-73.9452416,40.699569,-73.979827,member
F4AC4B0839EFB72D,electric_bike,2025-10-05 01:45:43.940,2025-10-05 01:52:27.191,Park Circle & East Dr,3344.02,6 Ave & 12 St,3803.05,40.651566,-73.972212,40.6663181,-73.9854617,casual
